ID,LocationID,Easting,Northing,latitude,longitude,Zone,Postcode,office_government_count,office_association_count,office_company_count,office_consulting_count,office_financial_count,office_coworking_count,office_lawyer_count,office_estate_agent_count,office_insurance_count,office_telecommunication_count,amenity_restaurant_count,amenity_cafe_count,amenity_bar_count,amenity_pub_count,amenity_fast_food_count,amenity_bicycle_parking_count,railway_subway_entrance_count,public_transport_platform_count,amenity_bus_station_count,amenity_taxi_count,amenity_parking_count,amenity_ferry_terminal_count,highway_bus_stop_count,amenity_parking_space_count,railway_tram_stop_count,shop_convenience_count,shop_supermarket_count,shop_mall_count,shop_department_store_count,shop_bakery_count,shop_butcher_count,shop_clothes_count,shop_hardware_count,shop_furniture_count,shop_electronics_count,leisure_park_count,leisure_sports_centre_count,leisure_playground_count,leisure_stadium_count,leisure_swimming_pool_count,leisure_pitch_count,leisure_track_count,leisure_fitness_centre_count,leisure_garden_count,leisure_nature_reserve_count,building_residential_count,building_house_count,building_detached_count,building_apartments_count,building_bungalow_count,geometry,population_density
0,Abbey Road,539081,183352,51.531952,0.003723371,3,E15 3NB,1,0,3,0,0,1,1,4,0,0,11,11,0,1,5,87,6,67,0,1,7,0,35,0,0,8,2,0,0,0,0,0,0,0,0,0,0,2,0,0,6,0,3,0,0,0,0,0,0,0,POINT (539081 183352),194.22871287128712
8,Aldgate,533629,181246,51.51434226,-0.075626912,1,EC3N 1AH,2,1,31,2,4,4,12,11,1,0,192,144,64,60,114,311,38,217,0,5,7,2,113,0,0,34,5,0,4,5,0,41,0,1,2,0,12,2,0,0,2,0,24,0,0,0,0,0,0,0,POINT (533629 181246),195.11851851851839
9,Aldgate East,533809,181333,51.51508151,-0.073001462,1,E1 7PT,2,0,24,2,3,4,9,12,1,0,185,136,61,55,111,314,15,200,0,5,7,1,104,0,0,33,5,0,3,5,0,40,0,1,2,0,13,2,0,0,2,0,22,0,0,0,0,0,0,0,POINT (533809 181333),193.5585106382978
11,All Saints,538012,180933,51.51047691,-0.012624885,2,E14 0EH,1,0,0,1,0,3,4,5,0,0,54,40,11,6,73,189,8,163,0,6,1,0,83,0,0,32,7,0,1,5,2,21,1,1,2,0,0,3,0,0,3,0,9,1,0,0,0,0,0,0,POINT (538012 180933),205.380909090909
16,Angel,531497,183263,51.53296785,-0.105581448,1,N1 8XB,0,2,5,1,0,1,3,10,0,0,105,52,14,22,38,354,1,160,0,2,3,0,98,0,0,29,5,0,0,4,4,36,1,16,2,0,1,3,0,0,0,0,6,0,0,0,0,0,0,0,POINT (531497 183263),197.11542553191492
18,Archway,529356,186827,51.56549032,-0.135121576,"2,3",N19 5RQ,0,0,1,0,0,0,3,6,0,0,14,11,1,6,10,208,5,125,0,1,0,0,76,0,0,16,4,0,0,2,0,1,1,1,3,0,0,5,0,0,0,0,1,0,0,0,0,0,0,0,POINT (529356 186827),155.74825581395342
21,Arsenal,531429,186107,51.55854121,-0.105499933,2,N5 1LP,0,0,1,0,0,1,3,8,0,0,55,64,6,14,47,315,5,100,0,3,1,0,57,0,0,46,6,0,1,7,10,22,6,7,2,0,2,5,0,0,0,0,5,0,0,0,0,0,1,0,POINT (531429 186107),173.49664804469268
23,Baker Street,527965,182078,51.52312937,-0.156904193,1,NW1 5LA,4,0,7,2,0,1,4,49,0,0,111,57,4,11,40,253,10,117,0,1,40,0,67,0,0,21,3,0,1,8,3,80,7,9,2,1,0,1,0,0,1,0,7,0,0,0,0,0,0,0,POINT (527965 182078),216.29492753623185
27,Barbican,532079,181859,51.52021513,-0.097721578,1,EC1A 4JA,0,3,86,4,2,5,16,3,1,0,126,84,37,32,66,536,40,229,0,8,10,0,129,0,0,19,8,0,1,3,1,14,3,7,2,0,3,6,0,1,1,0,14,0,0,0,0,0,0,0,POINT (532079 181859),213.64766355140185
34,Barons Court,524133,178322,51.49022833,-0.213430142,2,W14 9DP,0,0,9,1,0,0,4,10,0,1,41,29,3,12,21,414,8,98,0,1,4,0,70,0,0,16,5,0,0,1,1,4,2,1,0,0,1,2,0,0,0,0,3,0,0,0,0,0,0,0,POINT (524133 178322),220.44285714285712
35,Battersea Park,528703,176999,51.47731808,-0.14812376,2,SW8 4NB,0,1,1,0,1,0,1,5,0,0,22,19,1,8,11,63,1,41,0,3,1,1,39,0,0,15,4,0,0,0,0,2,0,2,0,0,1,1,0,0,0,0,2,2,0,0,0,0,0,0,POINT (528703 176999),203.8648936170213
37,Bayswater,525845,180799,51.51211098,-0.187901572,1,W2 4QH,0,0,7,0,0,0,3,39,2,0,117,69,9,4,38,279,11,103,0,2,7,0,70,0,0,35,9,1,0,5,0,67,1,5,1,0,1,2,0,0,2,0,10,0,0,1,0,0,0,0,POINT (525845 180799),252.28087431694001
41,Beckton,543145,181509,51.51437673,0.061525297,3,E6 5NT,0,0,0,0,0,0,0,1,0,0,2,3,2,1,5,22,2,54,0,0,0,0,41,0,0,4,5,0,0,0,0,1,0,0,0,0,1,0,0,0,4,0,0,0,0,0,0,0,0,0,POINT (543145 181509),98.41290322580643
42,Beckton Park,542697,180887,51.50890089,0.054821939,3,E6 5NE,0,0,0,0,0,0,0,1,0,0,6,5,3,1,6,23,0,73,0,0,0,0,51,0,0,4,1,0,0,0,0,1,0,0,1,0,1,0,0,0,5,0,0,0,0,0,0,0,0,0,POINT (542697 180887),101.54918032786884
48,Belsize Park,527399,185075,51.55019061,-0.163974491,2,NW3 2AL,0,0,0,0,0,0,1,6,0,0,19,12,1,5,6,148,2,72,0,1,2,0,72,0,0,9,4,0,0,1,0,2,0,1,0,0,0,4,0,0,0,0,0,0,0,0,0,0,0,0,POINT (527399 185075),198.03756906077356
50,Bermondsey,534461,179445,51.49796068,-0.06433009,2,SE16 4RX,0,0,2,0,0,0,1,12,0,0,20,21,9,16,10,179,1,135,0,2,2,0,68,0,0,18,6,0,0,4,2,0,0,0,0,0,0,4,0,1,3,0,2,0,0,0,0,0,0,0,POINT (534461 179445),191.083660130719
62,Blackwall,538394,180649,51.50783153,-0.007235166,2,E14 9QB,0,0,4,1,0,3,3,3,0,0,69,31,9,6,72,154,4,136,0,3,2,0,70,0,0,24,7,0,1,5,2,12,1,1,2,0,0,2,0,0,2,0,10,1,0,0,0,0,0,0,POINT (538394 180649),206.1179487179487
63,Bond Street,528497,181053,51.51379728,-0.149613609,1,W1C 2HU,0,5,67,0,0,3,5,38,0,0,272,116,37,16,70,405,24,162,0,3,20,0,81,0,0,17,8,0,3,8,1,274,8,19,2,0,0,0,0,0,2,0,10,2,0,0,0,0,0,0,POINT (528497 181053),137.50990099009897
64,Borough,532379,179734,51.50104872,-0.094197323,1,SE1 1JX,1,0,12,2,0,1,2,8,0,0,120,71,22,26,66,456,15,189,0,5,11,2,98,0,0,40,6,0,2,8,2,5,0,3,1,4,3,2,0,0,10,0,11,0,0,0,0,0,0,0,POINT (532379 179734),209.36408450704215
66,Bounds Green,529996,191466,51.60703172,-0.124177065,"3,4",N11 2EU,0,0,2,0,0,0,0,10,0,0,13,11,0,3,10,25,2,42,0,1,0,0,41,1,0,19,2,0,0,3,1,1,1,0,1,1,0,0,0,0,0,0,2,0,0,3,0,0,0,0,POINT (529996 191466),108.60882352941171
67,Bow Church,537414,182824,51.52761517,-0.020499899,2,E3 3AA,2,0,2,0,0,1,1,4,0,0,4,15,2,3,13,108,3,110,0,1,1,0,55,0,0,20,2,0,0,3,1,2,0,1,0,0,0,5,0,1,5,0,4,0,0,0,0,0,0,0,POINT (537414 182824),231.2825757575758
68,Bow Road,537148,182753,51.52704177,-0.024359591,2,E3 4DH,2,0,1,0,0,0,2,3,0,0,4,17,1,3,15,108,3,149,0,2,2,0,74,0,0,18,2,0,0,3,1,2,0,2,1,0,0,3,0,1,0,0,1,0,0,0,0,0,0,0,POINT (537148 182753),237.84859154929583
75,Brockley,536405,175801,51.4647496,-0.03774825,2,SE4 2RW,0,0,0,0,0,0,0,1,0,0,5,6,0,4,8,56,0,68,0,0,2,0,68,0,0,5,2,0,0,0,0,0,1,0,0,0,1,1,0,0,0,0,0,0,0,0,1,0,0,0,POINT (536405 175801),109.20090090090088
78,Bromley-by-Bow,538034,182532,51.52484018,-0.011682374,"2,3",E3 3BT,1,0,2,0,0,1,1,2,0,0,2,10,2,1,12,81,2,95,0,1,1,0,48,0,0,17,1,0,0,3,1,1,0,1,0,0,0,5,0,0,5,0,4,0,1,0,0,0,0,0,POINT (538034 182532),223.19052631578947
82,Bruce Grove,533758,190115,51.59401113,-0.070398989,3,N17 8AD,1,0,0,0,0,1,0,1,0,0,4,15,0,10,18,99,0,88,0,1,0,0,77,0,0,25,3,0,0,0,0,3,0,0,3,0,1,1,0,1,0,0,2,0,0,0,0,0,0,0,POINT (533758 190115),155.26744186046508
88,Caledonian Road,530568,184899,51.54788525,-0.118360861,2,N7 9BA,0,0,0,0,0,0,2,1,0,0,31,39,4,14,21,220,2,119,0,0,1,0,73,0,0,27,7,0,0,3,1,4,0,5,0,0,1,2,0,0,1,0,4,0,0,0,0,0,0,0,POINT (530568 184899),169.515028901734
90,Cambridge Heath,534855,183250,51.53205967,-0.057203201,2,E2 7NA,1,0,13,0,0,1,0,2,0,0,26,37,8,6,17,339,4,126,0,0,0,0,69,0,0,29,1,0,0,8,3,8,1,1,0,0,2,1,0,0,5,0,4,0,0,0,0,0,0,0,POINT (534855 183250),207.87828571428574
91,Camden Road,529140,184191,51.54185101,-0.139203111,2,NW1 9LQ,0,0,4,0,0,0,2,1,0,0,38,19,12,14,17,288,6,144,0,3,5,2,87,0,0,11,3,0,0,6,1,22,0,2,0,0,1,1,0,0,0,0,2,0,0,2,0,0,0,0,POINT (529140 184191),172.63333333333327
92,Camden Town,528920,183976,51.53996912,-0.14245238,2,NW1 8NH,0,0,3,0,0,0,2,7,0,0,37,21,13,15,17,277,6,133,0,3,4,2,84,0,0,13,3,0,0,6,1,22,0,3,0,0,1,1,0,0,0,0,2,0,0,2,0,0,0,0,POINT (528920 183976),178.6285714285714
93,Canada Water,535399,179493,51.49816833,-0.050807121,2,SE16 7BB,0,0,2,0,0,0,0,13,0,0,14,18,3,8,10,114,6,126,0,1,3,0,63,0,0,13,2,0,0,2,1,4,0,0,0,0,2,2,0,1,4,0,4,0,0,0,0,0,0,0,POINT (535399 179493),154.6264957264956
95,Canning Town,539454,181350,51.5138703,0.008305633,3,E16 1DQ,0,0,1,0,0,2,0,5,0,0,23,20,6,1,24,97,5,118,0,0,1,1,59,0,0,21,6,0,0,1,2,2,0,1,2,0,2,3,0,0,3,0,8,0,1,0,0,0,0,0,POINT (539454 181350),171.12289156626508
97,Canonbury,532355,184979,51.54818824,-0.092574195,2,N1 2PG,0,0,0,0,0,0,0,3,0,0,27,28,2,7,17,244,2,143,0,0,0,0,83,0,0,17,3,0,0,3,1,7,2,3,0,0,0,2,0,0,0,0,0,0,0,0,0,0,0,0,POINT (532355 184979),163.76304347826093
110,Chalk Farm,528126,184421,51.54414884,-0.15373307,2,NW3 2BP,0,0,3,0,0,0,3,10,0,0,38,18,12,11,19,265,4,82,0,3,6,2,65,0,0,7,1,0,0,7,0,26,1,5,0,0,1,3,0,0,1,0,2,0,0,2,0,0,0,0,POINT (528126 184421),197.76645962732928
111,Chancery Lane,531096,181642,51.51849384,-0.111962027,1,WC1V 6DR,0,1,88,3,0,3,12,5,0,0,137,127,37,36,61,595,20,229,0,7,12,0,119,0,0,20,4,1,0,3,1,25,1,6,1,0,0,2,0,0,1,0,14,0,0,0,0,0,0,0,POINT (531096 181642),202.23980582524277
129,Clapham Common,529428,175291,51.46180345,-0.138314901,2,SW4 7AJ,0,0,0,0,0,0,4,13,0,0,54,34,18,24,31,225,4,68,0,2,0,0,58,0,0,25,1,0,0,1,2,4,0,2,0,0,5,0,0,1,1,0,2,0,0,0,1,0,0,0,POINT (529428 175291),152.70816326530618
130,Clapham High Street,529824,175709,51.4654693,-0.132464502,2,SW4 6DQ,0,1,1,0,0,0,4,15,0,0,48,41,17,28,40,277,4,80,0,2,1,0,60,0,0,33,2,0,0,1,1,6,3,1,1,0,2,0,0,1,3,0,3,0,0,0,0,0,0,0,POINT (529824 175709),176.5727272727272
131,Clapham Junction,527198,175520,51.46436651,-0.170315001,2,SW11 2QP,0,0,1,0,1,0,3,26,0,0,62,46,23,13,31,139,3,93,0,4,2,1,79,0,0,27,2,0,2,4,3,16,2,10,3,0,10,0,0,0,0,0,1,0,0,0,0,0,1,0,POINT (527198 175520),178.1428571428571
132,Clapham North,530003,175652,51.464916,-0.129910062,2,SW4 7TS,0,1,1,0,0,0,4,14,0,0,53,45,17,27,38,304,5,88,0,2,2,0,63,0,0,32,2,0,0,1,1,5,4,1,0,0,2,0,0,1,3,0,3,0,0,0,0,0,0,0,POINT (530003 175652),180.3388235294117
133,Clapham South,528782,174259,51.45267625,-0.147984068,"2,3",SW12 9DU,0,0,0,0,0,0,1,9,0,0,24,13,3,6,14,75,3,45,0,1,0,0,45,0,0,7,4,0,1,1,1,0,0,1,0,0,3,0,0,0,0,0,1,0,0,0,1,0,0,0,POINT (528782 174259),134.7900763358779
134,Clapton,534748,186531,51.561569,-0.057489458,2,E5 9JP,0,0,0,0,0,0,0,1,0,0,2,4,0,1,3,204,0,96,0,0,1,0,74,0,0,8,2,0,0,0,0,0,2,1,0,0,0,0,0,0,3,0,1,0,0,0,0,0,0,0,POINT (534748 186531),178.93999999999997
142,Covent Garden,530242,180982,51.51276003,-0.124506894,1,WC2E 9JT,0,1,97,1,0,3,5,2,0,0,389,174,78,43,113,532,34,222,0,7,13,2,112,4,0,34,8,2,1,11,0,104,4,2,5,0,5,1,0,0,4,0,14,0,0,1,0,0,0,0,POINT (530242 180982),116.43333333333331
148,Crouch Hill,530586,187508,51.57132691,-0.117133284,3,N4 4AU,0,0,1,0,0,0,1,2,1,0,29,19,0,5,19,176,2,103,0,3,0,0,57,0,0,17,5,0,0,3,3,7,1,1,1,0,0,4,0,0,0,0,3,0,0,0,0,0,1,0,POINT (530586 187508),157.11235294117648
151,Custom House,540679,180911,51.5096221,0.02577251,3,E16 3BX,1,0,4,0,0,1,0,8,0,0,17,18,3,3,11,63,0,90,0,0,0,0,46,0,0,14,1,0,0,0,0,1,0,1,0,0,1,1,0,0,3,0,2,1,0,0,0,0,0,0,POINT (540679 180911),157.06125000000006
153,Cyprus,543324,180863,51.50852669,0.063840756,3,E6 5PH,0,0,0,0,0,0,0,2,0,0,4,4,3,1,3,25,2,78,0,0,0,0,50,0,0,6,5,0,0,0,0,1,0,0,0,0,0,0,0,0,5,0,1,0,0,0,0,0,0,0,POINT (543324 180863),108.16666666666664
157,Dalston Junction,533580,184778,51.5460936,-0.074994204,2,E8 3DL,0,0,1,0,0,0,1,2,0,0,17,15,14,1,10,548,1,164,0,0,1,0,92,0,0,13,3,0,0,2,2,7,0,0,0,0,1,0,0,0,4,0,1,0,0,0,0,0,0,0,POINT (533580 184778),188.26938775510206
158,Dalston Kingsland,533487,185062,51.5486677,-0.076226922,2,E8 2JS,0,0,1,0,0,0,0,2,0,0,18,15,16,2,13,545,1,153,0,0,1,0,90,0,0,14,4,0,0,2,3,7,0,1,0,0,1,1,0,0,1,0,2,0,0,0,0,0,0,0,POINT (533487 185062),188.95257731958762
160,Denmark Hill,532697,176087,51.46820049,-0.090987869,2,SE5 8BB,0,1,6,0,0,1,3,5,0,0,3,11,3,7,13,198,0,99,0,1,2,0,65,0,0,17,1,0,0,3,1,0,2,1,0,0,0,6,0,0,0,0,1,0,0,0,0,0,0,0,POINT (532697 176087),152.57985611510793
163,Devons Road,537603,182233,51.52225844,-0.018007754,2,E3 3QX,1,0,1,0,0,0,1,2,0,0,1,13,0,1,16,96,2,149,0,1,1,0,75,0,0,23,1,0,0,3,1,1,0,1,0,0,0,3,0,0,0,0,2,0,0,0,0,0,0,0,POINT (537603 182233),217.61769230769227
172,East Acton,521656,181159,51.51626301,-0.248112221,2,W12 0BP,0,0,0,0,0,0,0,1,0,0,0,0,0,0,5,43,0,51,0,0,0,0,49,0,0,5,0,0,0,1,0,0,0,0,0,0,0,0,0,0,0,0,0,0,0,0,1,0,0,0,POINT (521656 181159),114.37368421052629
176,East Ham,542373,184255,51.53924625,0.051516293,"3,4",E6 2JA,0,0,0,0,1,0,2,5,0,0,21,14,0,2,33,105,3,57,0,0,0,0,52,0,0,42,1,0,0,2,3,2,0,1,1,0,0,0,0,0,0,0,0,0,0,0,0,0,0,0,POINT (542373 184255),190.3453947368421
177,East India,538729,180753,51.50868401,-0.002370332,"2,3",E14 9PS,0,0,1,0,0,2,1,0,0,0,37,22,6,3,31,114,5,125,0,1,1,1,63,0,0,21,3,0,0,2,2,2,0,1,0,0,0,1,0,0,2,0,10,0,0,0,0,0,0,0,POINT (538729 180753),207.065671641791
178,East Putney,524387,174840,51.45887944,-0.210998232,"2,3",SW15 6SN,0,0,0,0,0,0,0,4,0,0,10,8,0,1,1,121,1,63,0,0,2,2,57,0,0,10,0,0,0,0,0,1,0,0,1,0,1,1,0,0,8,0,2,0,0,0,0,0,0,0,POINT (524387 174840),113.78793103448277
191,Elverson Road,537848,176243,51.46837217,-0.016816376,"2,3",SE8 4LA,0,0,0,0,0,0,2,2,0,0,16,17,2,11,16,94,0,121,0,2,0,0,84,14,0,13,2,0,0,1,2,2,0,1,1,0,0,1,0,0,0,0,7,0,0,0,0,0,0,0,POINT (537848 176243),120.2772357723577
192,Embankment,530406,180380,51.5073123,-0.122367336,1,WC2N 6NS,3,1,33,1,0,0,2,3,0,0,274,132,60,37,76,368,42,230,0,6,17,4,119,4,0,23,7,2,1,9,1,68,2,0,3,0,6,0,0,0,3,0,11,0,0,1,0,0,0,0,POINT (530406 180380),134.35272727272726
202,Euston Square,529454,182376,51.52546838,-0.135344488,1,NW1 2BN,0,1,29,1,0,3,1,4,0,0,100,100,25,28,46,533,22,149,0,9,14,0,75,1,0,28,6,0,0,6,0,22,2,6,0,1,2,4,0,0,0,0,8,0,0,0,0,0,0,0,POINT (529454 182376),274.05714285714265
207,Farringdon,531585,181844,51.52019552,-0.104843061,1,EC1M 6BY,0,1,73,4,0,3,17,4,1,0,111,96,31,31,55,561,22,222,0,6,11,0,123,0,0,18,5,0,0,2,1,20,2,7,1,0,0,4,0,1,0,0,9,0,0,0,0,0,0,0,POINT (531585 181844),203.42983870967745
212,Finchley Road,526293,184703,51.54709591,-0.180050559,2,NW6 3BS,0,0,1,0,0,0,0,10,0,0,32,20,1,3,10,99,6,72,0,0,5,0,72,0,0,15,7,0,1,2,0,2,1,5,1,0,2,0,0,1,0,0,6,0,0,0,0,0,0,0,POINT (526293 184703),163.3051428571429
214,Finsbury Park,531385,186784,51.56463527,-0.105881486,2,N4 3JU,0,0,1,0,0,1,1,8,1,0,51,50,4,9,44,273,9,109,0,3,1,0,58,0,0,36,3,0,0,6,9,20,6,7,2,0,1,5,0,0,0,0,2,0,0,0,0,0,1,0,POINT (531385 186784),171.3758823529411
215,Forest Gate,540447,185322,51.54931616,0.024189092,3,E7 0QH,0,0,1,0,0,1,1,1,0,0,11,6,1,2,3,66,0,57,0,0,3,0,49,0,0,10,2,0,0,1,0,0,0,0,1,0,0,0,0,0,0,0,3,0,0,0,0,0,0,0,POINT (540447 185322),167.49140625000004
216,Forest Hill,535398,172943,51.43930823,-0.053328504,3,SE23 3HD,0,0,0,0,0,0,0,0,0,0,2,2,1,5,2,34,0,65,0,0,0,0,65,0,0,2,3,0,0,0,0,0,0,0,0,0,0,1,0,1,0,0,0,1,0,0,0,0,0,0,POINT (535398 172943),93.04953271028036
217,Fulham Broadway,525402,177244,51.48026059,-0.195544162,2,SW6 1BY,0,0,0,0,0,0,2,4,0,0,32,24,6,16,9,277,8,85,0,1,5,0,81,0,0,17,4,0,0,1,4,4,1,21,2,1,2,0,0,0,0,0,5,1,0,0,0,0,0,0,POINT (525402 177244),191.77121212121205
219,Gallions Reach,543873,180935,51.50903426,0.071775395,3,E6 6FZ,0,0,0,0,0,0,0,3,0,0,3,4,3,0,1,20,2,66,0,0,0,0,42,0,0,5,1,0,0,0,1,0,0,0,0,0,0,0,0,0,4,0,1,0,0,0,0,0,0,0,POINT (543873 180935),104.86388888888888
224,Gloucester Road,526196,178848,51.49449926,-0.183543558,1,SW7 4SF,0,0,7,0,0,0,1,44,0,0,151,64,11,10,34,344,7,103,0,1,9,0,83,0,0,24,2,0,2,16,3,31,4,11,1,0,0,0,0,0,0,0,11,0,0,0,0,0,0,0,POINT (526196 178848),212.56954545454545
226,Goldhawk Road,523131,179616,51.5020766,-0.227404003,2,W12 8EG,1,2,9,3,2,0,9,26,0,0,97,42,5,9,47,369,10,84,0,3,8,0,73,0,0,20,7,0,1,10,4,72,5,6,4,0,1,1,0,0,0,0,8,0,0,0,0,0,3,0,POINT (523131 179616),195.01229946524063
227,Goodge Street,529505,181837,51.52061289,-0.134807689,1,W1T 2HF,0,1,81,2,0,5,3,5,0,0,250,150,55,30,87,653,29,208,0,7,16,0,104,1,0,33,5,0,2,6,0,76,3,14,4,0,3,4,0,0,0,0,10,0,0,0,0,0,0,0,POINT (529505 181837),233.51970802919712
230,Gospel Oak,528263,185677,51.55540505,-0.151301031,2,NW5 1LT,1,0,4,0,0,0,1,10,1,0,25,18,3,8,10,184,2,82,0,1,3,0,56,0,0,16,5,0,0,2,2,1,0,1,0,0,1,4,0,0,0,0,3,0,0,0,0,0,1,0,POINT (528263 185677),164.4194244604316
234,Great Portland Street,528861,182174,51.52378856,-0.143961424,1,W1W 5PP,3,1,25,1,0,3,2,23,0,0,119,80,22,17,63,455,25,144,0,3,14,0,73,0,0,19,5,0,2,7,1,94,4,16,0,0,1,4,0,0,0,0,9,0,0,0,0,0,0,0,POINT (528861 182174),192.22750000000002
235,Green Park,529012,180283,51.50676025,-0.142477574,1,W1J 7BX,2,6,59,0,0,2,4,11,0,0,278,104,50,25,62,291,34,162,0,5,15,0,83,0,0,20,7,0,3,8,0,219,3,2,3,0,2,0,0,0,2,0,5,1,0,1,0,0,0,0,POINT (529012 180283),55.443137254901956
241,Hackney Central,534922,184943,51.54725736,-0.055589512,2,E8 1LL,3,0,2,0,0,1,0,1,0,0,20,17,7,0,11,509,0,181,0,0,2,0,100,0,0,6,1,0,1,4,1,4,1,2,0,0,0,0,0,0,3,0,7,1,0,0,0,0,0,0,POINT (534922 184943),193.68304093567252
242,Hackney Downs,534598,185137,51.54907799,-0.060185105,2,E8 1LA,2,0,1,0,0,0,0,1,0,0,20,13,9,0,8,501,0,164,0,0,2,0,96,0,0,8,3,0,1,4,1,4,1,3,0,0,0,0,0,0,1,0,5,0,0,0,0,0,0,0,POINT (534598 185137),187.1356725146199
243,Hackney Wick,537036,184588,51.54355837,-0.025259503,2,E9 5ER,0,0,3,2,0,4,0,5,0,0,17,17,4,3,7,155,2,121,0,0,3,0,62,0,0,11,1,0,0,3,0,5,0,2,0,1,1,2,0,0,6,0,5,0,0,0,0,0,0,0,POINT (537036 184588),129.26271186440673
245,Haggerston,533560,183953,51.53868461,-0.075595258,2,E8 4DY,0,1,2,0,0,3,1,2,0,0,23,23,9,3,11,437,0,135,0,0,0,0,84,0,0,21,4,0,1,3,3,2,0,1,0,0,1,1,0,0,7,0,3,0,0,0,0,0,0,0,POINT (533560 183953),193.95891891891893
249,Hampstead,526408,185757,51.55654231,-0.178014558,2,NW3 1QG,0,0,0,0,0,0,0,2,0,0,13,8,0,3,6,48,2,49,0,1,2,0,43,0,0,2,3,0,0,2,0,1,0,2,0,0,1,0,0,0,0,0,2,0,0,0,0,0,0,0,POINT (526408 185757),115.77291666666666
250,Hampstead Heath,527344,185631,51.55519966,-0.164566182,3,NW3 2QD,0,0,0,0,0,0,0,2,0,0,15,12,0,4,3,108,3,44,0,1,2,0,44,0,0,5,2,0,0,1,0,1,0,1,0,0,0,4,0,0,0,0,1,0,0,0,0,0,0,0,POINT (527344 185631),159.52285714285713
259,Harringay Green Lanes,531880,188189,51.57714573,-0.098217391,3,N4 2NU,0,0,0,0,0,0,3,8,0,0,23,19,0,4,14,89,7,78,0,1,2,0,57,0,0,16,4,0,0,5,3,10,0,3,0,0,2,2,0,0,0,0,2,1,0,0,0,0,0,0,POINT (531880 188189),146.97235772357726
275,Heron Quays,537386,180127,51.50338654,-0.021953532,2,E14 4JH,2,1,9,2,1,1,4,25,0,0,68,36,11,6,84,190,8,128,0,6,2,2,65,0,0,20,7,0,1,3,0,20,1,0,2,0,1,4,0,0,4,0,7,1,0,0,0,0,0,0,POINT (537386 180127),210.4064220183486
277,High Street Kensington,525622,179527,51.50072913,-0.191566055,1,W8 5SA,0,0,9,0,0,0,1,36,0,0,111,46,7,6,25,291,6,77,0,0,11,0,60,0,0,21,2,0,2,8,1,30,5,1,1,0,0,0,0,0,0,0,8,0,0,0,0,0,0,0,POINT (525622 179527),201.66369047619048
280,Highgate,528503,188158,51.57764638,-0.146934861,3,N6 5BH,0,1,0,0,0,0,1,5,0,0,14,5,1,1,6,23,1,89,0,0,0,0,46,0,0,4,2,0,0,0,0,1,1,1,2,0,0,1,0,0,0,0,3,1,0,0,0,0,0,0,POINT (528503 188158),91.76400000000001
283,Holborn,530553,181488,51.51723554,-0.119840507,1,WC2B 6AA,0,0,70,3,0,3,8,1,0,0,250,162,51,44,95,630,20,220,0,6,15,0,112,1,0,28,5,1,1,7,0,67,3,5,3,0,5,1,0,0,2,0,14,0,0,0,0,0,0,0,POINT (530553 181488),217.5761904761905
284,Holland Park,524564,180215,51.50714615,-0.206557775,2,W11 3RB,0,0,8,1,0,0,0,33,0,0,51,35,4,5,16,334,6,72,0,1,12,0,59,0,0,15,5,0,1,7,2,100,1,4,3,0,0,4,0,0,0,0,5,0,1,0,0,0,0,0,POINT (524564 180215),193.69010416666666
285,Holloway Road,530930,185457,51.55281592,-0.112935696,2,N7 8HS,0,0,0,0,0,0,3,1,0,0,37,51,2,17,21,253,5,93,0,1,1,0,57,0,0,32,5,0,1,2,3,9,2,7,0,0,2,3,0,0,1,0,4,0,0,0,0,0,0,0,POINT (530930 185457),175.52440476190472
286,Homerton,536108,184901,51.54659539,-0.038512347,2,E9 5SD,0,0,2,2,0,0,0,3,0,0,9,10,3,0,9,252,0,143,0,0,2,0,76,0,0,10,1,0,0,0,0,2,0,2,0,1,0,0,0,0,2,0,4,1,0,0,0,0,0,0,POINT (536108 184901),192.23731343283583
287,Honor Oak Park,536002,174221,51.45064817,-0.044153121,3,SE23 3LE,0,1,0,0,0,0,2,6,0,0,5,8,1,7,14,57,0,58,0,1,0,0,55,0,0,15,2,0,0,0,0,1,0,1,0,0,0,0,0,0,1,0,0,0,0,0,0,0,0,0,POINT (536002 174221),94.05816326530613
294,Hoxton,533582,183142,51.53139149,-0.075585647,"1,2",E2 8HR,1,1,22,1,0,3,1,2,2,0,59,60,22,10,21,519,0,145,0,2,1,0,83,0,0,34,5,0,1,5,2,12,0,2,1,0,2,0,0,0,7,0,4,0,0,0,0,0,0,0,POINT (533582 183142),209.88563829787242
295,Hyde Park Corner,528330,179801,51.50258377,-0.152474113,1,SW1X 7LY,1,0,14,0,0,1,1,15,0,0,108,41,17,9,26,154,23,136,0,2,12,0,73,0,0,11,2,0,2,4,0,73,1,1,0,0,0,0,0,0,0,0,3,2,0,0,0,0,0,0,POINT (528330 179801),81.81492537313432
298,Imperial Wharf,526299,176674,51.47493863,-0.182837503,2,SW6 2HA,0,0,2,0,0,0,1,5,0,0,33,15,3,9,7,197,0,87,0,0,12,2,82,0,0,13,1,0,0,1,1,5,1,20,1,0,1,1,0,0,0,0,1,0,0,0,0,0,0,0,POINT (526299 176674),210.99146341463413
299,Island Gardens,538228,178432,51.48795007,-0.010493303,2,E14 3FA,0,0,1,0,0,0,2,11,1,0,33,35,2,10,17,81,2,94,0,0,0,2,47,0,0,12,2,0,1,5,1,9,0,2,1,0,1,0,0,0,3,0,2,0,0,0,0,0,0,0,POINT (538228 178432),162.21666666666664
303,Kennington,531660,178337,51.48866229,-0.105070613,2,SE11 4JQ,2,0,3,0,0,0,5,15,0,0,49,34,5,27,36,311,6,175,0,1,11,0,100,0,0,31,5,0,1,4,0,9,3,4,1,1,1,3,0,0,4,0,7,2,0,0,0,1,0,0,POINT (531660 178337),201.70271739130436
306,Kensington (Olympia),524324,179178,51.49787936,-0.21037924,2,W14 0NE,0,0,7,2,0,0,4,29,0,1,53,35,2,5,13,378,3,76,0,1,2,0,57,0,0,19,2,0,0,3,0,3,6,4,1,0,0,3,0,0,0,0,3,0,1,0,0,0,0,0,POINT (524324 179178),219.47582417582404
308,Kentish Town,529029,185096,51.55000929,-0.140471263,2,NW5 2AA,1,0,4,0,0,0,1,10,1,0,27,16,3,11,18,295,4,134,0,2,4,0,82,0,0,17,6,0,0,4,3,5,0,2,0,0,1,5,0,0,0,0,2,0,0,0,0,0,1,0,POINT (529029 185096),174.09347826086946
309,Kentish Town West,528603,184700,51.54654773,-0.146756409,2,NW5 3LD,1,0,7,0,0,0,3,14,0,0,47,20,14,17,21,295,6,114,0,3,6,2,76,0,0,12,5,0,0,8,2,27,1,4,0,0,1,3,0,0,0,0,3,0,0,2,0,0,1,0,POINT (528603 184700),181.87732558139535
315,Kilburn High Road,525553,183591,51.53726743,-0.191113104,2,NW6 7QL,1,0,1,0,0,0,1,10,0,0,16,9,1,1,2,138,2,85,0,0,5,0,67,0,0,11,2,0,0,1,0,2,0,1,0,0,1,1,0,0,0,0,6,0,0,0,0,0,0,0,POINT (525553 183591),196.1523316062175
317,King George V,543231,180135,51.50200871,0.062206214,3,E16 2JF,0,0,0,0,0,0,0,3,0,0,9,7,4,2,6,24,0,78,0,0,0,3,45,0,0,8,0,0,0,0,0,0,0,0,1,0,0,0,0,1,6,0,2,0,0,0,0,0,0,0,POINT (543231 180135),114.95250000000001
324,Knightsbridge,527765,179650,51.50135464,-0.160664485,1,SW3 1ED,1,0,6,0,0,0,0,20,0,0,74,37,7,3,7,151,11,94,0,0,8,0,50,0,0,8,0,0,2,3,2,101,0,5,0,0,0,0,0,0,0,0,4,3,0,0,0,0,0,0,POINT (527765 179650),111.80697674418606
326,Ladbroke Grove,524284,181328,51.51721033,-0.21019817,2,W10 6HJ,0,2,8,0,0,0,1,17,0,0,50,40,9,3,23,344,2,73,0,0,4,0,68,0,0,27,4,0,0,8,2,91,2,8,0,0,2,5,0,0,0,0,4,0,0,0,0,0,0,0,POINT (524284 181328),194.0979797979798
328,Lambeth North,531165,179489,51.49912977,-0.11176826,1,SE1 7XG,0,0,3,1,0,1,1,10,0,0,76,67,11,29,39,367,24,220,0,1,14,3,113,4,0,30,8,0,0,4,3,4,1,2,2,5,4,7,0,0,2,0,6,0,0,0,0,1,0,0,POINT (531165 179489),202.07304347826093
329,Lancaster Gate,526711,180796,51.51189066,-0.175429927,1,W2 4QH,1,0,6,2,0,0,4,32,2,0,99,57,9,6,32,195,7,94,0,3,10,0,57,0,0,31,7,1,1,4,0,10,2,0,1,0,1,1,0,0,1,0,5,2,0,0,1,0,0,0,POINT (526711 180796),241.942372881356
330,Langdon Park,537807,181863,51.51888392,-0.015213799,2,E14 6NW,0,0,1,0,0,0,2,1,0,0,4,20,0,3,32,108,1,150,0,1,0,0,75,0,0,30,0,0,0,4,3,1,0,2,0,0,0,4,0,0,1,0,3,1,0,0,0,0,0,0,POINT (537807 181863),212.66559999999993
332,Latimer Road,523789,180954,51.51395774,-0.217459663,2,W10 6SZ,0,1,8,0,0,0,1,20,0,0,57,44,5,3,24,275,4,74,0,0,7,0,68,0,0,19,5,0,1,10,3,98,2,9,3,0,1,1,0,0,0,0,5,0,0,0,0,0,0,0,POINT (523789 180954),182.3044585987261
336,Leicester Square,529987,180812,51.51129097,-0.128242147,1,WC2H 0AP,0,6,93,1,0,3,4,3,0,0,411,173,84,41,122,531,36,213,0,7,15,2,109,0,0,29,8,2,1,13,0,188,4,5,5,0,6,2,0,0,3,0,13,0,0,1,0,0,0,0,POINT (529987 180812),95.06307692307692
346,London City Airport,542231,180294,51.50368975,0.047872716,3,E16 2DS,0,0,0,0,0,0,0,1,0,0,4,5,1,0,5,18,0,48,0,0,0,0,29,0,0,4,0,0,0,0,0,0,0,0,1,0,1,0,0,0,6,0,1,0,0,0,0,0,0,0,POINT (542231 180294),85.52941176470587
347,London Fields,534795,184212,51.54071875,-0.057699686,2,E8 3PH,3,0,13,0,0,1,0,0,0,0,26,25,10,0,6,528,0,169,0,0,1,0,93,0,0,12,1,0,1,8,2,5,1,1,0,0,3,0,0,0,4,0,8,0,0,0,0,0,0,0,POINT (534795 184212),193.64799999999994
351,Maida Vale,525967,182792,51.52999476,-0.185432645,2,W9 1JS,1,0,2,0,0,0,0,22,0,0,25,19,2,3,3,110,5,84,0,1,23,0,66,0,0,14,3,0,0,1,1,3,2,0,0,0,2,2,0,0,0,0,5,0,0,0,0,0,0,0,POINT (525967 182792),227.89396984924636
354,Manor House,532074,187482,51.57074699,-0.095684976,"2,3",N4 1BZ,0,0,0,0,0,0,2,9,0,0,21,21,2,5,25,191,8,96,0,3,2,0,60,0,0,23,3,0,0,5,4,6,2,1,1,0,0,3,0,0,1,0,2,0,0,0,0,0,1,0,POINT (532074 187482),149.84887218045114
355,Manor Park,541929,185757,51.55285443,0.04572387,"3,4",E12 5EP,0,0,0,0,0,0,0,1,0,0,3,3,0,1,8,64,0,38,0,0,0,0,37,0,0,6,1,0,0,0,0,0,0,0,0,0,0,0,0,0,0,0,0,0,0,0,0,0,0,0,POINT (541929 185757),155.40344827586208
356,Mansion House,532347,180962,51.5120916,-0.094197657,1,EC4N 6JD,1,2,67,3,3,3,16,4,1,0,162,107,65,45,95,376,58,230,0,8,11,3,119,0,0,23,2,0,5,6,0,31,1,2,0,0,6,2,0,0,3,0,16,0,0,0,0,0,0,0,POINT (532347 180962),125.41627906976741
357,Marble Arch,527875,181056,51.51396523,-0.158571215,1,W1C 2JS,2,0,32,3,0,0,5,57,0,0,153,75,8,11,43,266,17,144,0,3,24,0,72,0,0,19,6,0,4,8,1,156,6,16,2,0,0,0,0,0,1,0,7,3,0,0,1,0,0,0,POINT (527875 181056),161.78571428571425
358,Maryland,539175,184881,51.54566828,0.005681654,3,E15 1SA,1,0,3,0,0,1,10,13,0,0,57,34,8,5,44,159,2,137,0,6,10,0,75,0,0,15,7,0,1,5,4,49,0,3,6,0,0,6,0,0,4,0,5,0,0,0,0,0,0,0,POINT (539175 184881),171.89512195121952
363,Mile End,536577,182545,51.52531092,-0.032666084,2,E3 4DH,2,0,0,0,0,0,2,3,1,0,10,17,1,4,15,126,2,148,0,2,2,0,74,0,0,19,1,0,0,1,1,3,0,1,1,0,2,1,0,1,0,0,2,0,0,0,0,0,0,0,POINT (536577 182545),228.85612903225808
371,Moorgate,532688,181677,51.518437,-0.089017687,1,EC2M 6TX,1,1,78,2,5,5,17,2,1,0,197,126,83,50,125,535,47,263,0,7,10,0,142,0,0,25,7,0,4,2,0,34,2,2,1,0,12,3,0,1,2,0,28,0,0,0,0,0,0,0,POINT (532688 181677),187.7093023255814
375,Mornington Crescent,529193,183359,51.53436199,-0.138744349,2,NW1 2JA,0,0,8,0,1,0,0,2,0,0,56,47,17,23,37,303,13,146,0,4,8,2,81,0,0,18,7,0,1,8,2,54,0,1,0,1,0,3,0,0,0,0,2,0,0,2,0,0,0,0,POINT (529193 183359),220.02499999999998
379,Mudchute,537908,178789,51.49123616,-0.014959945,2,E14 9UW,0,1,2,0,0,0,2,13,0,0,13,15,0,2,21,64,1,92,0,0,1,2,46,0,0,12,4,0,0,1,1,0,0,1,0,0,1,0,0,0,3,0,4,0,0,0,0,0,0,0,POINT (537908 178789),193.20396039603955
384,New Cross,536750,177110,51.47642936,-0.032278811,2,SE14 6LD,0,0,3,0,0,0,0,4,0,0,22,32,9,13,16,122,0,104,0,1,5,0,67,0,0,18,1,0,0,1,3,2,0,0,0,0,1,1,0,0,3,0,5,0,0,0,1,0,0,0,POINT (536750 177110),141.45572519083962
385,New Cross Gate,536250,176967,51.47526487,-0.039529052,2,SE14 6AR,0,0,2,0,0,0,0,4,0,0,13,24,5,9,12,79,0,81,0,0,5,0,60,0,0,10,0,0,0,0,3,1,0,0,0,0,1,0,0,0,2,0,1,0,0,0,1,0,0,0,POINT (536250 176967),124.98095238095235
408,Notting Hill Gate,525296,180481,51.50937502,-0.195921616,"1,2",W11 3HT,0,0,3,0,0,0,1,48,1,0,132,57,8,6,23,319,7,85,0,0,13,0,65,0,0,27,8,1,2,9,1,99,1,7,2,0,1,3,0,0,0,0,12,0,0,1,0,0,0,0,POINT (525296 180481),217.583422459893
413,Old Street,532764,182474,51.52558133,-0.087622957,1,EC1V 9NR,2,3,48,2,2,5,8,1,2,0,117,77,39,21,56,559,14,204,0,5,6,0,120,0,0,35,12,0,2,2,1,15,1,5,2,0,7,4,0,1,2,0,12,0,0,0,0,0,0,0,POINT (532764 182474),224.599393939394
416,Oval,531108,177516,51.48141242,-0.113321075,2,SE11 4PP,0,0,6,0,0,0,3,17,0,0,34,29,9,11,16,292,5,160,0,0,17,0,92,1,0,28,2,0,0,2,0,0,1,0,2,1,2,2,0,0,7,0,3,2,0,0,0,0,0,0,POINT (531108 177516),201.40804597701145
417,Oxford Circus,529102,181227,51.51522317,-0.14083617,1,W1C 2JS,0,5,100,2,0,5,6,25,0,0,397,155,80,29,110,558,38,182,0,10,19,0,92,0,0,27,10,0,4,13,1,295,5,21,6,0,2,2,0,0,1,0,11,1,0,1,0,0,0,0,POINT (529102 181227),133.18686868686868
421,Parsons Green,525029,176645,51.47495983,-0.20112449,2,SW6 4HU,0,0,0,0,0,0,1,4,0,0,25,32,5,16,8,293,5,78,0,1,3,0,73,0,0,16,4,0,0,1,2,4,1,12,1,1,1,0,0,0,0,0,2,1,0,1,0,0,0,0,POINT (525029 176645),172.80977011494252
422,Peckham Rye,534152,176271,51.46951125,-0.069983553,2,SE15 5DQ,0,2,0,0,0,0,1,2,0,0,18,10,2,6,12,208,0,79,1,1,1,0,65,0,0,10,3,1,0,1,0,3,1,0,0,0,0,12,0,0,0,0,1,0,0,1,0,0,0,0,POINT (534152 176271),159.7646258503401
428,Piccadilly Circus,529612,180625,51.50969653,-0.133711596,1,W1J 9HS,1,6,84,1,0,3,4,5,0,0,414,159,88,38,124,466,44,208,0,8,17,1,106,0,0,29,9,1,1,12,0,241,6,5,6,0,6,0,0,0,3,0,10,0,0,1,0,0,0,0,POINT (529612 180625),82.6032786885246
429,Pimlico,529711,178386,51.48955265,-0.133108257,1,SW1V 2JA,0,0,12,0,1,1,0,13,0,0,49,49,13,14,34,293,10,178,1,2,6,2,95,1,0,31,3,0,0,3,1,8,3,1,1,0,7,1,0,0,2,0,7,2,0,0,0,0,0,0,POINT (529711 178386),326.5497267759562
431,Plaistow,540058,183305,51.53128837,0.017780642,3,E13 0DY,1,0,1,0,0,0,0,3,0,0,3,9,0,1,12,57,4,101,0,0,2,0,61,0,0,21,2,0,0,1,0,0,0,1,1,0,1,0,0,0,3,0,1,0,0,0,0,0,0,0,POINT (540058 183305),189.0255813953488
434,Pontoon Dock,541226,180102,51.50221627,0.033325708,3,E16 2SB,1,0,3,0,0,0,0,6,0,0,11,14,2,3,8,64,0,47,0,0,0,1,24,3,0,10,0,0,0,0,0,0,0,0,0,0,1,0,0,1,4,0,3,1,0,0,0,0,0,0,POINT (541226 180102),81.58965517241377
435,Poplar,537698,180603,51.50758804,-0.017275493,2,E14 0DS,2,1,9,2,1,3,5,17,0,0,74,44,13,6,84,212,8,159,0,6,2,1,81,0,0,29,6,0,1,5,2,21,1,1,2,0,1,3,0,0,4,0,12,1,0,0,0,0,0,0,POINT (537698 180603),235.19449541284388
437,Prince Regent,541215,180905,51.50943461,0.033488574,3,E16 3HE,1,0,3,0,0,0,0,8,0,0,17,16,2,2,11,55,0,90,0,0,0,0,49,0,0,18,0,0,0,0,0,0,0,0,0,0,1,0,0,0,6,0,2,0,0,0,0,0,0,0,POINT (541215 180905),119.72000000000003
438,Pudding Mill Lane,537930,183585,51.53432784,-0.012768512,"2,3",E15 2PH,5,0,2,0,0,1,1,5,0,0,14,19,3,1,7,137,2,92,0,1,5,0,45,0,0,11,2,0,0,2,0,5,0,1,0,0,0,5,0,0,5,0,7,0,0,0,0,0,0,0,POINT (537930 183585),210.1821428571428
443,Putney Bridge,524476,175842,51.467865,-0.209365414,2,SW6 3UH,0,0,0,0,0,0,1,9,0,0,14,19,1,8,1,207,1,67,0,0,3,2,57,0,0,11,2,0,0,0,0,2,0,1,1,0,3,1,0,0,0,0,1,0,0,1,0,0,0,0,POINT (524476 175842),150.76638655462182
445,Queens Road Peckham,535015,176825,51.47428462,-0.057354979,2,SE15 2JR,0,2,5,0,0,0,3,2,0,0,13,8,1,6,8,121,0,87,1,1,2,0,63,0,0,12,2,1,0,1,0,2,2,0,0,0,0,7,0,0,3,0,1,0,0,1,0,0,0,0,POINT (535015 176825),150.14964539007087
448,Queensway,525883,180615,51.51044893,-0.187419901,1,W2 4SS,0,0,4,0,0,0,3,39,1,0,127,64,7,5,25,271,9,92,0,1,10,0,64,0,0,32,8,1,1,5,0,65,1,5,2,0,1,2,0,0,0,0,10,0,0,1,0,0,0,0,POINT (525883 180615),242.70790960451984
451,Ravenscourt Park,522558,178711,51.4940676,-0.23596923,2,W6 0UG,1,2,11,3,1,0,4,11,0,0,44,28,4,11,26,307,9,99,0,3,5,0,75,0,0,13,5,0,0,3,1,3,3,2,0,0,1,0,0,1,0,0,10,0,0,0,0,0,4,0,POINT (522558 178711),161.64888888888888
455,Rectory Road,534001,186199,51.55876337,-0.068385664,2,N16 7QB,0,0,0,0,0,0,0,3,0,0,23,25,12,8,28,457,0,105,0,4,2,0,81,0,0,31,7,0,0,5,4,9,2,3,1,0,1,1,0,0,3,0,1,0,0,0,0,0,0,0,POINT (534001 186199),186.1309523809524
465,Rotherhithe,535239,179870,51.50159442,-0.052966296,2,SE16 4LF,0,0,1,0,0,0,0,14,0,0,10,15,4,2,10,114,6,130,0,1,4,0,64,0,0,15,2,0,0,1,1,4,0,0,0,0,2,3,0,1,4,0,2,0,0,0,0,0,0,0,POINT (535239 179870),172.3909909909909
466,Royal Albert,542029,180823,51.50849395,0.045177145,3,E16 2QD,0,0,0,0,0,0,0,0,0,0,5,8,1,0,6,27,0,64,0,0,0,0,39,0,0,8,0,0,0,0,0,0,0,0,1,0,1,0,0,0,4,0,1,0,0,0,0,0,0,0,POINT (542029 180823),97.82115384615385
467,Royal Oak,525764,181485,51.51829405,-0.188823672,2,W2 6ET,0,1,8,0,0,0,3,28,2,0,107,65,11,7,38,282,8,103,0,2,13,0,75,0,0,45,8,1,0,5,0,53,2,4,1,0,2,2,0,0,2,0,10,0,0,1,0,0,0,0,POINT (525764 181485),258.47606837606844
468,Royal Victoria,540139,180833,51.50905527,0.017965413,3,E16 1DE,1,0,4,0,0,1,0,5,0,0,21,20,5,3,12,80,5,77,0,0,1,2,39,0,0,10,4,0,0,0,0,2,0,1,0,0,2,1,0,0,2,0,6,1,0,0,0,0,0,0,POINT (540139 180833),151.61791044776126
472,Russell Square,530207,182122,51.52301284,-0.124590197,1,WC1N 1LG,0,1,49,1,0,3,4,2,0,0,169,162,28,47,80,647,28,220,0,10,14,0,109,2,0,44,6,0,1,2,0,36,1,5,1,1,2,3,0,0,0,0,11,0,0,0,0,0,0,0,POINT (530207 182122),249.02799999999993
477,Seven Sisters,533646,188927,51.58336204,-0.072466823,3,N15 5LA,0,0,0,0,0,0,0,3,0,0,12,16,1,5,21,90,5,84,0,0,0,0,75,0,0,22,6,0,2,3,2,3,0,1,2,0,2,1,0,1,3,0,0,0,0,0,0,0,0,0,POINT (533646 188927),151.94492753623192
482,Shoreditch High Street,533501,182258,51.5234667,-0.077087424,1,E1 6AW,2,0,56,1,2,4,8,5,2,0,145,112,48,30,67,533,15,209,0,7,6,0,112,0,0,36,9,0,3,3,1,30,0,3,2,0,9,0,0,0,3,0,18,0,0,0,0,0,0,0,POINT (533501 182258),192.24366197183107
487,Sloane Square,528080,178657,51.49235951,-0.156488856,1,SW1W 8BB,5,0,6,0,0,0,0,41,0,0,87,59,9,12,35,272,6,151,3,2,19,0,96,0,0,17,2,0,2,6,3,177,0,9,0,0,1,0,0,0,1,0,4,0,0,0,0,0,0,0,POINT (528080 178657),318.481976744186
495,South Hampstead,526425,184081,51.54147656,-0.178371198,2,NW8 0DJ,0,0,1,0,0,0,0,18,0,0,33,18,1,3,8,85,6,60,0,0,16,0,60,0,0,16,6,0,0,1,0,4,1,5,1,0,2,0,0,1,0,0,6,0,0,0,0,0,0,0,POINT (526425 184081),194.62303030303033
497,South Kensington,526865,178817,51.49407108,-0.173923021,1,SW7 2NB,0,0,5,0,0,0,0,55,0,0,149,70,15,11,27,346,4,113,0,1,14,0,86,0,0,15,4,0,0,13,3,124,3,18,0,0,1,0,0,0,0,0,7,0,0,0,0,0,0,0,POINT (526865 178817),303.6713541666668
500,South Quay,537636,179853,51.50086358,-0.018460693,2,E14 9SH,2,1,9,2,1,1,4,23,0,0,64,36,11,4,79,167,4,109,0,6,2,1,55,0,0,18,7,0,1,4,1,20,1,0,2,0,1,1,0,0,3,0,7,0,0,0,0,0,0,0,POINT (537636 179853),224.49489795918367
502,South Tottenham,533697,188599,51.58040247,-0.071855956,3,N15 6ND,0,0,0,0,0,0,0,3,0,0,10,12,1,4,16,88,5,74,0,0,1,0,71,0,0,19,5,0,0,4,3,4,0,1,0,0,2,1,0,1,3,0,0,0,0,0,0,0,0,0,POINT (533697 188599),148.57421875
507,Southfields,524730,173291,51.44488298,-0.206609383,3,SW18 5RJ,0,0,0,0,0,0,0,0,0,0,0,2,0,0,0,42,0,40,0,0,0,0,40,0,0,5,2,0,0,0,0,0,1,0,0,0,0,0,0,0,0,0,0,0,0,0,0,0,0,0,POINT (524730 173291),122.25217391304339
509,Southwark,531566,180025,51.50385345,-0.105794939,1,SE1 8NW,1,0,11,3,0,2,1,8,0,0,106,86,26,28,40,420,29,225,0,4,12,3,115,4,0,31,8,0,0,4,3,5,1,2,2,4,4,5,0,0,9,0,6,0,0,0,0,0,0,0,POINT (531566 180025),180.6618556701031
516,St. James's Park,529629,179503,51.49960958,-0.133878754,1,SW1H 0BD,5,1,17,0,0,2,2,5,0,0,87,68,16,20,49,218,19,193,0,2,10,1,101,0,0,19,1,0,1,3,0,28,1,0,1,0,4,0,0,0,1,0,5,0,0,0,0,0,0,0,POINT (529629 179503),340.0058139534883
520,Stamford Hill,533381,187928,51.57444748,-0.076668342,3,N16 5AG,0,0,0,0,0,0,0,1,0,0,5,8,2,4,8,139,1,73,0,0,2,0,68,0,0,18,2,0,0,2,3,9,1,1,0,0,0,2,0,0,2,0,0,0,0,0,0,0,0,0,POINT (533381 187928),162.14000000000004
522,Star Lane,539148,182091,51.52060426,0.004191003,3,E16 4SR,0,0,0,0,0,0,0,4,0,0,18,18,5,0,23,59,6,110,0,0,1,0,55,0,0,20,4,0,0,1,2,2,0,0,2,0,1,3,0,0,4,0,4,0,1,0,0,0,0,0,POINT (539148 182091),109.8462686567164
523,Stepney Green,535566,182149,51.52199576,-0.047382523,2,E1 4AQ,0,0,1,0,0,0,3,4,1,0,21,19,5,8,18,164,7,151,0,1,1,0,75,1,0,26,1,0,0,1,2,2,1,0,0,0,1,3,0,0,2,0,2,0,0,0,0,0,0,0,POINT (535566 182149),212.29230769230756
524,Stockwell,530473,176470,51.47215906,-0.122846303,2,SW9 9AE,0,1,1,0,0,0,3,5,0,0,18,31,6,16,25,255,3,117,0,1,6,0,69,0,0,32,3,0,0,2,2,3,4,0,1,1,0,1,0,0,5,0,4,0,0,0,0,0,0,0,POINT (530473 176470),205.2585635359116
525,Stoke Newington,533710,186845,51.56463749,-0.072335394,2,N16 6YA,0,0,0,0,0,0,0,3,0,0,20,24,6,8,23,362,0,75,0,4,1,0,65,0,0,30,7,0,0,5,4,9,3,3,1,0,1,2,0,0,1,0,0,0,0,0,0,0,0,0,POINT (533710 186845),171.6062111801243
528,Stratford,538533,184421,51.54169258,-0.003751641,3,E15 1AZ,5,0,3,0,0,1,10,11,0,0,64,46,7,8,37,230,3,141,0,6,12,0,72,0,0,16,7,0,1,9,3,53,0,2,5,0,0,9,0,0,0,0,9,0,0,0,0,0,0,0,POINT (538533 184421),171.17000000000002
529,Stratford High Street,538729,184032,51.53814895,-0.001080356,3,E15 3PA,5,0,4,0,0,2,10,9,0,0,53,41,4,6,36,190,3,123,0,5,11,0,65,0,0,8,7,0,1,7,3,54,0,2,5,0,0,6,0,0,1,0,8,0,0,0,0,0,0,0,POINT (538729 184032),211.98888888888894
541,Surrey Quays,535641,178954,51.49326678,-0.047529988,2,SE16 2UE,0,0,2,0,0,0,0,5,0,0,12,14,3,7,7,111,5,136,0,1,3,0,73,0,0,11,1,0,0,2,0,4,0,0,0,0,1,2,0,1,4,0,6,0,0,0,0,0,0,0,POINT (535641 178954),154.16695652173905
544,Swiss Cottage,526611,184259,51.54303456,-0.175626603,2,NW3 6HY,0,0,1,0,0,0,0,12,0,0,32,14,1,2,7,84,6,63,0,0,9,0,63,0,0,15,5,0,0,1,0,2,1,5,1,0,2,0,0,1,0,0,6,0,0,0,0,0,0,0,POINT (526611 184259),186.47844311377256
545,Sydenham,535311,171609,51.42734116,-0.055088671,3,SE26 5EU,0,0,0,0,0,0,0,6,0,0,10,8,1,5,8,35,0,59,0,0,0,0,59,0,0,9,7,0,0,2,2,2,0,1,0,1,1,0,0,1,0,0,2,0,0,0,0,0,0,0,POINT (535311 171609),96.69351851851854
552,Temple,530995,180810,51.51104042,-0.11372575,1,WC2R 2PH,0,1,61,3,0,4,10,0,0,0,189,136,50,41,73,429,46,231,0,7,15,4,119,4,0,23,4,2,0,5,0,50,2,2,3,0,5,0,0,0,2,0,12,0,0,0,0,0,0,0,POINT (530995 180810),121.47966101694915
560,Tooting Bec,528015,172366,51.4358378,-0.159700491,3,SW17 9AH,0,0,1,0,0,0,5,9,0,0,75,20,8,2,11,80,9,35,0,1,0,0,34,0,0,19,4,0,1,4,3,10,3,0,0,0,1,0,0,0,0,0,2,0,0,0,0,0,1,0,POINT (528015 172366),153.58345323741008
561,Tooting Broadway,527415,171373,51.42704887,-0.168684526,3,SW17 0SU,0,0,0,1,0,0,6,9,2,0,81,25,9,7,19,85,2,74,0,1,2,0,57,0,0,26,3,0,2,4,6,15,4,0,1,0,0,0,0,0,0,0,5,1,0,0,0,0,0,0,POINT (527415 171373),152.75845070422537
562,Tottenham Court Road,529774,181354,51.51621066,-0.131110438,1,W1D 2DA,0,2,97,2,0,5,4,4,0,0,452,202,87,44,128,692,43,238,0,13,18,0,121,0,0,37,8,0,2,11,0,171,7,8,5,0,6,2,0,0,1,0,20,0,0,1,0,0,0,0,POINT (529774 181354),202.1242990654206
565,Tower Gateway,533725,180809,51.51039252,-0.074409877,1,EC3N 1JL,2,0,24,1,1,3,8,14,1,0,181,122,65,54,107,263,25,187,0,5,5,3,95,0,0,30,3,0,4,5,0,31,0,0,2,0,9,3,0,0,0,0,20,0,0,0,0,0,0,0,POINT (533725 180809),230.06836734693877
566,Tower Hill,533566,180805,51.51039415,-0.076701198,1,EC3N 4DJ,2,0,28,1,3,3,8,12,1,0,195,134,67,57,119,282,42,217,0,6,5,3,110,0,0,29,5,0,5,6,0,35,0,0,2,0,10,3,0,0,1,0,23,0,0,0,0,0,0,0,POINT (533566 180805),222.916091954023
567,Tufnell Park,529200,185816,51.55644058,-0.137742174,2,N19 5QB,1,0,4,0,0,0,0,10,1,0,21,14,3,8,13,257,2,109,0,1,3,0,65,0,0,15,7,0,0,4,2,3,1,1,0,0,1,4,0,0,0,0,3,0,0,0,0,0,1,0,POINT (529200 185816),153.3423312883435
571,Turnpike Lane,531524,189650,51.59035797,-0.102805041,3,N15 3NX,0,0,0,0,0,0,0,7,0,0,27,27,1,9,27,116,5,91,0,1,1,0,62,1,0,12,10,0,1,5,6,18,0,0,2,0,3,4,0,0,0,0,2,3,0,0,0,0,0,0,POINT (531524 189650),147.24065040650407
577,Upper Holloway,529778,186630,51.5636231,-0.129109363,2,N19 4DJ,0,0,1,0,0,0,2,3,0,0,18,17,1,8,17,258,5,126,0,2,0,0,74,0,0,22,4,0,0,3,2,3,2,3,2,0,0,2,0,0,0,0,1,0,0,0,0,0,0,0,POINT (529778 186630),169.05879120879115
579,Upton Park,541204,183931,51.53662826,0.03454184,3,E13 9AP,0,0,0,0,0,0,5,11,1,0,14,14,0,1,13,66,0,69,0,1,0,0,64,0,0,30,1,0,0,2,3,3,1,2,4,0,2,0,0,0,0,0,1,0,0,0,0,0,0,0,POINT (541204 183931),203.4113924050633
591,Wandsworth Road,529354,176226,51.47022298,-0.139037675,2,SW8 4PA,0,1,1,0,1,0,4,8,0,0,46,42,13,28,34,228,4,77,0,2,1,0,65,0,0,32,1,0,0,1,2,6,1,2,1,0,4,1,0,1,2,0,4,0,0,0,0,0,0,0,POINT (529354 176226),177.97142857142848
594,Wanstead Park,540592,185600,51.55177812,0.026389943,3,E7 0HU,0,0,1,0,0,1,1,0,0,0,12,6,1,2,3,59,0,51,0,0,0,0,43,0,0,12,2,0,0,1,0,0,0,0,1,0,0,0,0,0,0,0,3,0,0,0,0,0,0,0,POINT (540592 185600),161.25631067961166
595,Wapping,535030,180170,51.50434023,-0.055860814,2,E1W 3PA,0,0,1,0,0,0,0,16,0,0,12,18,4,4,14,135,4,140,0,1,6,0,69,0,0,21,2,0,0,2,1,2,0,0,0,0,3,4,0,1,3,0,3,0,0,0,0,0,0,0,POINT (535030 180170),198.2768656716418
596,Warren Street,529253,182272,51.52457976,-0.138278331,1,NW1 3AA,3,1,34,1,0,3,1,7,0,0,103,87,26,24,43,530,15,150,0,3,13,0,76,0,0,25,5,0,0,4,0,29,3,8,2,1,2,4,0,0,0,0,9,0,0,0,0,0,0,0,POINT (529253 182272),268.6503546099289
597,Warwick Avenue,526158,182030,51.52310414,-0.182953291,2,W9 2PT,0,0,9,1,0,0,1,29,2,0,59,54,8,6,33,213,9,103,0,2,22,0,65,0,0,42,4,1,0,4,4,7,2,1,1,0,2,4,0,0,2,0,6,0,0,1,0,0,0,0,POINT (526158 182030),261.3803571428572
609,West Brompton,525383,178030,51.4873286,-0.19553881,2,SW5 9JX,0,0,2,1,0,0,2,21,0,0,63,30,6,11,22,276,9,68,0,1,4,0,66,0,0,20,3,0,0,1,3,4,2,1,2,0,1,0,0,0,0,0,8,0,0,0,0,0,0,0,POINT (525383 178030),226.64938775510208
615,West Ham,539202,182974,51.52852553,0.005317394,3,E15 3BN,0,0,1,0,0,0,0,0,0,0,1,7,1,0,6,50,4,77,0,0,1,0,40,0,0,6,2,0,0,1,0,0,0,0,2,0,0,4,0,0,7,0,0,0,1,0,0,0,0,0,POINT (539202 182974),185.2202380952381
619,West India Quay,537471,180505,51.50676263,-0.020582447,2,E14 4ED,2,1,9,2,1,1,5,21,0,0,73,43,12,7,85,209,8,157,0,6,2,2,80,0,0,28,8,0,1,4,2,20,1,1,2,0,1,3,0,0,5,0,9,1,0,0,0,0,0,0,POINT (537471 180505),230.75739130434766
620,West Kensington,524635,178321,51.49010903,-0.206203692,2,W14 9NL,0,0,5,1,0,0,2,16,0,1,47,21,1,8,17,315,7,63,0,0,1,0,52,0,0,15,3,0,0,2,2,4,3,1,2,0,1,1,0,0,0,0,3,0,0,0,0,0,0,0,POINT (524635 178321),231.28778280543
623,West Silvertown,540455,180155,51.50288447,0.022246047,3,E16 2AT,1,0,4,0,0,0,0,9,0,0,16,16,2,4,7,69,0,44,0,0,0,2,23,0,0,10,1,0,0,0,0,1,0,1,0,0,0,0,0,1,1,0,3,1,0,0,0,0,0,0,POINT (540455 180155),159.2375
626,Westbourne Park,524920,181764,51.52098851,-0.200882513,2,W11 1AB,1,1,3,0,0,0,5,25,0,0,88,61,10,5,34,325,2,106,0,0,9,0,82,0,0,48,6,0,0,9,2,91,3,13,1,0,2,2,0,0,2,0,6,0,0,1,0,0,0,0,POINT (524920 181764),239.13937007874023
628,Westferry,537064,180814,51.50963811,-0.026323137,2,E14 8AD,1,0,3,0,1,0,2,15,0,0,51,35,9,7,67,169,14,134,0,6,5,2,66,0,0,23,5,0,1,3,2,21,1,1,2,0,1,3,0,0,5,0,4,1,0,0,0,0,0,0,POINT (537064 180814),203.9951612903225
629,Westminster,530240,179718,51.50140139,-0.125002078,1,SW1A 2JR,4,1,13,0,0,0,2,9,0,0,98,96,19,19,47,254,31,235,0,3,15,4,120,4,0,24,6,1,0,2,2,13,2,0,2,0,3,1,0,0,4,0,8,0,0,0,0,0,0,0,POINT (530240 179718),346.03731343283584
630,White City,523296,180750,51.51223207,-0.224631929,2,W12 7RH,0,1,9,0,0,0,1,8,0,0,56,34,2,3,36,280,6,81,0,2,6,0,73,0,0,19,6,0,1,13,3,73,0,4,3,0,0,0,0,0,0,0,4,0,0,0,0,0,0,0,POINT (523296 180750),192.1136054421768
631,White Hart Lane,533693,191340,51.60503466,-0.070870327,3,N17 7RP,0,0,0,0,0,1,0,1,0,1,1,9,0,9,9,106,0,79,0,0,0,0,63,0,0,14,5,0,0,0,1,2,1,2,0,0,0,0,0,0,0,0,1,0,0,0,0,0,0,0,POINT (533693 191340),135.43660714285716
632,Whitechapel,534738,181859,51.51958769,-0.059420485,2,E1 1BY,1,1,5,0,0,0,4,9,0,0,40,47,5,17,34,215,10,141,0,1,1,0,70,1,0,37,3,0,0,4,1,19,1,0,1,0,1,2,0,0,2,0,2,0,0,0,0,0,0,0,POINT (534738 181859),229.0370165745857
642,Wood Green,531038,190427,51.59745355,-0.109526589,3,N22 8HH,0,0,0,0,0,0,2,6,0,0,21,23,0,7,24,100,5,94,0,1,3,0,66,0,0,14,6,0,1,6,6,15,0,0,2,0,0,2,0,0,0,0,2,1,0,0,0,0,0,0,POINT (531038 190427),150.31440677966103
643,Wood Lane,523314,180464,51.50965783,-0.224472606,2,W12 7DS,0,1,12,1,1,0,4,15,0,0,75,39,2,6,41,327,8,79,0,2,6,0,71,0,0,20,7,0,1,12,4,74,1,4,4,0,0,0,0,0,0,0,5,0,0,0,0,0,0,0,POINT (523314 180464),201.16022727272718
646,Woodgrange Park,541861,185332,51.54905261,0.044572496,"3,4",E7 8AA,0,0,0,0,0,0,0,2,0,0,6,6,0,1,9,78,0,51,0,0,0,0,49,0,0,12,1,0,0,0,0,0,0,1,0,0,0,0,0,0,0,0,0,0,0,0,0,0,0,0,POINT (541861 185332),168.175
