LocationID,Count,ProgID,SurveyDescription,Easting,Northing,Location,Borough,Functional cycling area,Latitude,Longitude,office_government_count,office_association_count,office_company_count,office_consulting_count,office_financial_count,office_coworking_count,office_lawyer_count,office_estate_agent_count,office_insurance_count,office_telecommunication_count,amenity_restaurant_count,amenity_cafe_count,amenity_bar_count,amenity_pub_count,amenity_fast_food_count,amenity_bicycle_parking_count,railway_subway_entrance_count,public_transport_platform_count,amenity_bus_station_count,amenity_taxi_count,amenity_parking_count,amenity_ferry_terminal_count,highway_bus_stop_count,amenity_parking_space_count,railway_tram_stop_count,shop_convenience_count,shop_supermarket_count,shop_mall_count,shop_department_store_count,shop_bakery_count,shop_butcher_count,shop_clothes_count,shop_hardware_count,shop_furniture_count,shop_electronics_count,leisure_park_count,leisure_sports_centre_count,leisure_playground_count,leisure_stadium_count,leisure_swimming_pool_count,leisure_pitch_count,leisure_track_count,leisure_fitness_centre_count,leisure_garden_count,leisure_nature_reserve_count,building_residential_count,building_house_count,building_detached_count,building_apartments_count,building_bungalow_count
CENCY001,7205,CENCY,Central area cycle surveys,530251,178742,Millbank (south of Thorney Street),Westminster,Central,51.49262789,-0.125203586,1,0,13,0,0,0,1,11,0,0,37,49,15,11,29,273,15,199,0,2,12,2,103,1,0,27,2,0,0,3,0,5,2,2,1,1,5,4,0,0,4,0,7,1,0,0,0,1,0,0
CENCY002,4942,CENCY,Central area cycle surveys,533363,181824,Bishopsgate,City of London,Central,51.51959918,-0.079239447,4,1,69,1,4,5,15,10,1,0,208,154,80,57,109,504,30,224,0,7,6,0,118,0,0,37,9,0,4,3,0,49,0,2,2,0,14,2,0,0,2,0,24,0,0,0,0,0,0,0
CENCY003,4605,CENCY,Central area cycle surveys,532334,180520,Southwark Bridge,Southwark,Central,51.50812262,-0.094550579,1,1,57,5,2,3,10,4,1,0,162,99,53,49,91,408,51,213,0,7,6,3,109,0,0,31,3,0,4,8,1,30,1,3,0,2,5,1,0,0,3,0,12,0,0,0,0,0,0,0
CENCY004,2899,CENCY,Central area cycle surveys,532053,179678,Southwark Bridge Road,Southwark,Central,51.50062166,-0.098912148,1,0,10,2,0,1,2,12,0,0,107,73,20,27,57,486,19,208,0,4,12,1,108,0,0,41,6,0,0,6,4,6,1,3,2,4,3,5,0,0,9,0,10,0,0,0,0,0,0,0
CENCY005,4501,CENCY,Central area cycle surveys,533032,180213,Tooley Street,Southwark,Central,51.50520005,-0.084614609,2,0,25,2,1,1,7,6,0,0,186,97,56,45,90,379,34,200,0,5,5,4,103,0,0,39,6,0,4,8,0,25,0,1,0,0,3,3,0,0,7,0,14,0,0,0,0,0,0,0
CENCY006,3750,CENCY,Central area cycle surveys,532264,180068,Southwark Bridge Road (north - between Flat Iron Square and America Street),Southwark,Central,51.5040771,-0.095727991,1,0,23,3,0,2,3,5,0,0,115,75,23,34,73,433,30,174,0,4,8,3,88,0,0,35,5,0,2,6,1,6,0,3,1,4,3,2,0,0,9,0,12,0,0,0,0,0,0,0
CENCY007,3171,CENCY,Central area cycle surveys,530468,178622,Albert Embankment (south of Salamanca Street),Lambeth,Central,51.49149951,-0.12212395,0,0,5,0,0,0,1,18,0,0,40,37,12,13,26,265,7,188,0,1,15,2,98,1,0,28,2,0,0,4,0,3,2,2,0,1,5,5,0,0,5,0,6,1,0,0,0,1,0,0
CENCY008,3078,CENCY,Central area cycle surveys,530347,180654,Strand,Westminster,Central,51.50978823,-0.123115747,3,1,57,1,0,2,4,0,0,0,334,146,71,38,96,430,45,245,0,7,17,4,124,4,0,30,8,2,1,11,0,91,3,0,4,0,6,0,0,0,4,0,12,0,0,1,0,0,0,0
CENCY009,2191,CENCY,Central area cycle surveys,529990,180677,Charing Cross Road,Westminster,Central,51.51007709,-0.128248625,3,6,81,1,0,3,4,2,0,0,391,160,80,37,103,492,34,208,0,7,17,4,106,4,0,26,7,2,1,12,0,178,4,2,5,0,6,0,0,0,3,0,11,0,0,1,0,0,0,0
CENCY010,3576,CENCY,Central area cycle surveys,530804,179489,Lambeth Palace Road,Lambeth,Central,51.49921334,-0.116965928,3,0,5,0,0,0,0,11,0,0,72,69,13,22,35,314,23,227,0,1,11,5,115,4,0,27,7,0,0,3,2,6,1,1,2,3,4,7,0,0,3,0,4,0,0,0,0,1,0,0
CENCY011,4481,CENCY,Central area cycle surveys,530147,180015,Whitehall (south of Horse Guards Avenue),Westminster,Central,51.50409183,-0.126231654,4,1,17,0,0,0,4,4,0,0,232,120,39,28,71,277,40,219,0,6,14,4,112,4,0,22,6,1,0,8,0,72,3,0,2,0,6,0,0,0,4,0,8,0,0,1,0,0,0,0
CENCY012,3217,CENCY,Central area cycle surveys,530574,179657,Westminster Bridge,Lambeth,Central,51.50077622,-0.12021538,4,0,12,0,0,0,1,12,0,0,78,79,16,26,42,282,33,247,0,3,13,4,125,4,0,27,7,1,0,3,2,10,1,1,2,0,3,5,0,0,4,0,7,0,0,0,0,0,0,0
CENCY013,7335,CENCY,Central area cycle surveys,530526,180526,Victoria Embankment (by Cleopatra's Needle),Westminster,Central,51.50859667,-0.120585218,3,1,40,1,0,2,3,1,0,0,276,132,59,38,80,395,40,234,0,6,17,4,120,4,0,25,7,2,1,9,0,53,2,0,3,0,6,0,0,0,3,0,11,0,0,0,0,0,0,0
CENCY014,7488,CENCY,Central area cycle surveys,530327,179838,Victoria Embankment (between Derby Gate and Westminster Bridge),Westminster,Central,51.50245975,-0.123705042,4,1,15,0,0,0,3,9,0,0,136,96,25,23,51,286,31,247,0,4,15,4,126,4,0,23,8,1,0,5,2,21,4,0,1,0,5,3,0,0,4,0,8,0,0,0,0,0,0,0
CENCY015,7038,CENCY,Central area cycle surveys,530202,179251,Millbank (north of Great Peter Street),Westminster,Central,51.49721337,-0.125721376,4,0,13,0,0,0,1,11,0,0,52,68,9,12,31,239,10,186,0,2,9,3,95,0,0,25,5,0,0,3,0,5,2,1,1,0,4,3,0,0,3,0,5,0,0,0,0,1,0,0
CENCY016,3788,CENCY,Central area cycle surveys,530398,178957,Lambeth Bridge,Westminster,Central,51.49452616,-0.123007996,3,0,5,0,0,0,1,13,0,0,51,64,16,14,36,266,16,208,0,2,11,3,106,1,0,30,4,0,0,3,0,3,2,1,1,1,5,6,0,0,4,0,6,0,0,0,0,1,0,0
CENCY017,8099,CENCY,Central area cycle surveys,530788,180527,Waterloo Bridge,Lambeth,Central,51.50854513,-0.116811764,0,1,34,1,0,2,5,4,0,0,210,131,52,36,70,386,42,230,0,4,16,4,119,4,0,22,6,2,0,5,2,48,2,2,3,0,5,1,0,0,3,0,10,0,0,0,0,0,0,0
CENCY018,2251,CENCY,Central area cycle surveys,529920,179493,Victoria Street,Westminster,Central,51.49945297,-0.12969247,5,1,19,0,0,0,2,5,0,0,69,65,17,13,37,224,15,197,0,2,11,3,101,0,0,19,1,0,1,0,0,8,1,0,1,0,3,0,0,0,3,0,4,0,0,0,0,0,0,0
CENCY019,6941,CENCY,Central area cycle surveys,530250,179666,Bridge Street,Westminster,Central,51.50093178,-0.124877229,4,1,12,0,0,0,1,10,0,0,92,95,18,19,47,260,31,238,0,3,13,4,122,4,0,25,6,1,0,3,2,12,2,0,2,0,3,2,0,0,4,0,6,0,0,0,0,0,0,0
CENCY020,1144,CENCY,Central area cycle surveys,529533,180245,Pall Mall,Westminster,Central,51.50629969,-0.134988733,5,6,55,1,0,2,5,4,0,0,337,130,63,30,88,334,35,182,0,7,15,2,92,0,0,25,7,1,0,11,0,174,4,1,3,0,4,0,0,0,2,0,7,0,0,1,0,0,0,0
CENCY021,1967,CENCY,Central area cycle surveys,528969,179397,Buckingham Palace Road,Westminster,Central,51.49880781,-0.1434204,7,0,17,0,0,2,1,10,0,0,107,77,17,21,58,226,22,200,3,3,11,0,110,0,0,25,2,0,2,4,0,20,2,0,1,0,2,0,0,0,1,0,3,0,0,0,0,0,0,0
CENCY022,2627,CENCY,Central area cycle surveys,530165,180355,Northumberland Avenue,Westminster,Central,51.50714314,-0.125847091,4,6,43,1,0,0,3,2,0,0,318,133,65,35,85,388,41,225,0,7,15,4,116,4,0,23,8,2,1,12,0,112,3,0,3,0,7,0,0,0,3,0,10,0,0,1,0,0,0,0
CENCY023,5518,CENCY,Central area cycle surveys,531158,179307,Kennington Road (north),Lambeth,Central,51.49749583,-0.111936597,0,0,3,0,0,0,1,14,0,0,76,62,10,28,37,378,24,246,0,1,13,2,126,0,0,30,8,0,0,3,2,4,1,1,2,5,4,7,0,0,3,0,7,0,0,0,0,1,0,0
CENCY024,1424,CENCY,Central area cycle surveys,530991,179112,Lambeth Road,Lambeth,Central,51.49578213,-0.11441331,0,0,6,0,0,0,1,19,0,0,63,68,9,25,38,344,14,233,0,1,13,3,118,0,0,31,7,0,0,4,2,6,1,1,2,3,3,7,0,0,5,0,7,0,0,0,0,1,0,0
CENCY025,4277,CENCY,Central area cycle surveys,531239,179007,Kennington Road (south of Brook Drive),Lambeth,Central,51.49478108,-0.110881868,0,0,5,0,0,0,1,21,0,0,72,60,9,26,37,363,9,213,0,2,17,0,110,0,0,37,10,0,0,4,2,4,1,1,2,5,2,7,0,0,6,0,8,1,0,0,0,1,0,0
CENCY026,1345,CENCY,Central area cycle surveys,531035,179521,Westminster Bridge Road,Lambeth,Central,51.49944746,-0.113628093,2,0,3,0,0,1,0,11,0,0,75,66,11,27,35,338,24,217,0,1,12,4,111,4,0,26,7,0,0,3,2,4,1,1,2,5,5,7,0,0,2,0,4,0,0,0,0,1,0,0
CENCY027,2272,CENCY,Central area cycle surveys,531451,179615,Waterloo Road,Southwark,Central,51.5001957,-0.107603481,0,0,6,3,0,2,0,11,0,0,101,79,20,29,41,438,24,235,0,3,14,1,121,4,0,36,9,0,0,5,3,5,1,2,2,5,3,7,0,0,5,0,9,0,0,0,0,0,0,0
CENCY028,5996,CENCY,Central area cycle surveys,531651,180066,Blackfriars Road (Southwark station),Southwark,Central,51.50420212,-0.104555652,1,1,16,3,0,2,4,10,0,0,115,84,24,30,50,439,29,220,0,4,12,3,112,4,0,34,8,0,0,5,3,6,1,3,2,4,4,5,0,0,7,0,7,0,0,0,0,0,0,0
CENCY029,8767,CENCY,Central area cycle surveys,531293,180817,Temple,City of London,Central,51.51103423,-0.109431369,0,1,49,3,0,4,9,0,0,0,135,100,48,37,56,406,36,228,0,7,10,4,117,4,0,20,2,1,0,4,0,18,1,2,3,0,3,1,0,0,2,0,11,0,0,0,0,0,0,0
CENCY030,11230,CENCY,Central area cycle surveys,531646,180576,Blackfriars Bridge,City of London,Central,51.50878642,-0.104437448,0,1,50,6,1,2,8,1,0,0,139,83,42,30,55,404,35,214,0,6,12,3,109,4,0,21,3,1,0,5,1,8,1,2,2,3,3,2,0,0,1,0,8,0,0,0,0,0,0,0
CENCY031,9643,CENCY,Central area cycle surveys,532837,180658,London Bridge,City of London,Central,51.50924484,-0.087255092,1,1,46,3,3,3,13,5,1,0,197,130,75,55,127,380,44,220,0,7,7,4,113,0,0,34,3,0,5,7,0,32,1,1,0,0,8,3,0,0,4,0,21,0,0,0,0,0,0,0
CENCY032,6412,CENCY,Central area cycle surveys,532580,180057,Borough High Street,Southwark,Central,51.50390428,-0.091181896,1,0,24,3,0,2,5,5,0,0,130,78,31,27,72,427,23,169,0,5,8,3,85,0,0,33,5,0,3,9,1,5,0,3,0,4,3,3,0,0,10,0,15,0,0,0,0,0,0,0
CENCY033,1075,CENCY,Central area cycle surveys,533262,179629,Bermondsey Street,Southwark,Central,51.49989785,-0.081523099,1,0,9,0,0,0,3,5,0,0,97,58,24,23,54,312,6,163,0,4,2,3,85,0,0,35,8,0,2,9,2,5,0,1,0,0,1,2,0,0,7,0,4,0,0,0,0,0,0,0
CENCY034,2897,CENCY,Central area cycle surveys,531829,179236,London Road,Southwark,Central,51.49670185,-0.102302394,2,0,4,2,0,0,2,11,0,0,79,66,11,31,46,406,14,196,0,2,9,0,104,0,0,48,10,0,0,3,4,8,2,1,1,5,3,8,0,0,9,0,10,0,0,0,0,1,0,0
CENCY035,4487,CENCY,Central area cycle surveys,531721,180348,Southwark Street,Southwark,Central,51.50672003,-0.103442457,1,1,37,3,0,2,8,7,0,0,139,82,34,32,60,420,32,208,0,5,13,3,105,4,0,30,6,0,0,8,3,7,0,2,2,4,4,2,0,0,4,0,8,0,0,0,0,0,0,0
CENCY036,2112,CENCY,Central area cycle surveys,531346,179259,Lambeth Road (west of St. George's Road),Southwark,Central,51.49702087,-0.109247715,0,0,4,1,0,0,1,15,0,0,82,67,10,32,43,397,18,233,0,2,14,0,119,0,0,35,10,0,0,4,3,4,1,1,2,5,4,7,0,0,6,0,10,0,0,0,0,1,0,0
CENCY037,1628,CENCY,Central area cycle surveys,531859,179485,Borough Road,Southwark,Central,51.49893251,-0.101777511,2,0,8,2,0,1,2,12,0,0,95,71,18,28,45,486,16,226,0,4,12,0,118,0,0,42,9,0,0,3,4,4,1,3,2,4,4,7,0,0,9,0,11,0,0,0,0,0,0,0
CENCY038,1567,CENCY,Central area cycle surveys,533678,180836,Minories,City of London,Central,51.51064627,-0.075076468,2,0,27,1,3,3,8,14,1,0,189,126,65,54,111,270,32,205,0,6,5,3,105,0,0,30,4,0,5,5,0,33,0,0,2,0,9,3,0,0,0,0,21,0,0,0,0,0,0,0
CENCY039,4509,CENCY,Central area cycle surveys,532949,180895,Gracechurch Street,City of London,Central,51.51134831,-0.085552895,2,1,51,2,5,4,15,7,1,0,230,140,78,62,149,344,51,234,0,10,5,3,120,0,0,25,3,0,6,7,0,36,1,0,1,0,13,3,0,0,1,0,26,0,0,0,0,0,0,0
CENCY040,3930,CENCY,Central area cycle surveys,531653,179549,Blackfriars Road,Southwark,Central,51.49955562,-0.104719624,1,0,8,3,0,2,1,11,0,0,97,81,20,33,45,476,23,248,0,3,15,0,128,0,0,39,9,0,0,5,3,4,1,3,2,5,4,6,0,0,8,0,11,0,0,0,0,0,0,0
CENCY041,4273,CENCY,Central area cycle surveys,531826,181393,Newgate Street,City of London,Central,51.51608647,-0.101540049,0,2,85,3,2,3,18,3,1,0,112,94,36,31,62,431,47,214,0,8,11,2,111,0,0,17,4,0,0,2,0,12,3,6,1,0,1,3,0,1,1,0,13,0,0,0,0,0,0,0
CENCY042,3677,CENCY,Central area cycle surveys,530921,181605,High Holborn,Camden,Central,51.51820188,-0.114496448,0,1,77,2,0,3,12,5,0,0,174,139,43,41,69,593,21,229,0,7,13,0,116,0,0,23,5,1,0,2,1,43,1,5,2,0,3,2,0,0,1,0,14,0,0,0,0,0,0,0
CENCY043,4233,CENCY,Central area cycle surveys,531279,181577,Holborn,City of London,Central,51.51786725,-0.109350217,0,1,74,4,0,3,13,5,0,0,132,120,36,38,64,575,25,245,0,5,10,1,128,0,0,21,5,1,0,3,1,24,2,6,1,0,0,3,0,0,1,0,14,0,0,0,0,0,0,0
CENCY044,10445,CENCY,Central area cycle surveys,531647,181040,New Bridge Street,City of London,Central,51.51295593,-0.104249956,0,1,73,4,1,3,13,1,1,0,106,81,38,28,49,403,35,195,0,6,13,2,99,0,0,17,2,1,0,4,0,11,1,5,1,0,1,2,0,0,1,0,11,0,0,0,0,0,0,0
CENCY045,2296,CENCY,Central area cycle surveys,531109,181106,Strand (east),Westminster,Central,51.51367403,-0.111973923,0,1,68,3,0,4,10,1,0,0,163,114,45,39,67,488,30,230,0,6,14,3,117,4,0,16,3,1,0,4,0,47,2,5,2,0,4,1,0,0,2,0,14,0,0,0,0,0,0,0
CENCY047,5089,CENCY,Central area cycle surveys,531288,182041,Clerkenwell Road (west),Camden,Central,51.52203491,-0.109047873,0,1,51,3,0,4,10,6,0,0,108,100,25,33,56,570,15,216,0,3,8,0,123,0,0,22,5,0,0,1,1,20,2,7,1,0,0,3,0,1,0,0,12,0,0,0,0,0,0,0
CENCY048,4121,CENCY,Central area cycle surveys,532764,181740,Moorgate,City of London,Central,51.5189853,-0.087899234,1,1,78,2,5,5,16,2,1,0,198,134,80,48,126,541,47,269,0,6,10,0,146,0,0,26,8,0,4,2,0,40,2,4,1,0,13,3,0,1,2,0,26,0,0,0,0,0,0,0
CENCY049,8302,CENCY,Central area cycle surveys,531595,181401,Farringdon Street,City of London,Central,51.51621217,-0.104864235,0,1,84,4,1,3,16,3,1,0,115,98,36,31,63,473,28,213,0,6,9,2,110,0,0,19,4,1,0,3,0,11,3,7,1,0,0,3,0,1,1,0,11,0,0,0,0,0,0,0
CENCY050,4364,CENCY,Central area cycle surveys,533641,181204,Aldgate High Street,City of London,Central,51.513962,-0.075469948,2,1,29,2,4,4,12,11,1,0,191,142,65,59,114,310,36,214,0,5,7,2,111,0,0,33,5,0,3,5,0,41,0,1,2,0,12,2,0,0,2,0,24,0,0,0,0,0,0,0
CENCY051,1555,CENCY,Central area cycle surveys,530865,180976,Strand (west),Westminster,Central,51.51256229,-0.115536386,0,1,71,3,0,3,10,1,0,0,228,145,51,37,84,461,44,249,0,4,12,2,125,4,0,25,3,2,0,5,0,56,2,0,2,0,5,1,0,0,2,0,12,0,0,0,0,0,0,0
CENCY052,6392,CENCY,Central area cycle surveys,530715,181854,Theobald's Road,Camden,Central,51.5204872,-0.117371419,0,0,62,2,0,3,7,5,0,0,157,142,31,43,59,644,15,229,0,6,14,0,118,1,0,32,5,1,0,1,1,36,1,6,2,0,2,1,0,0,0,0,14,0,0,0,0,0,0,0
CENCY053,2499,CENCY,Central area cycle surveys,532817,182064,City Road,Islington,Central,51.52188445,-0.087013809,2,2,70,3,4,6,14,2,3,0,160,118,64,37,86,583,29,247,0,7,10,0,133,0,0,24,11,0,2,2,0,27,1,5,2,0,13,3,0,1,2,0,19,0,0,0,0,0,0,0
CENCY054,2174,CENCY,Central area cycle surveys,530584,181357,Kingsway,Camden,Central,51.51605114,-0.119442436,0,0,62,3,0,2,8,1,0,0,261,169,53,45,103,588,25,220,0,7,14,0,112,0,0,29,6,2,1,7,0,68,3,4,4,0,4,1,0,0,2,0,14,0,0,0,0,0,0,0
CENCY055,2848,CENCY,Central area cycle surveys,530666,180998,Aldwych,Westminster,Central,51.51280601,-0.118394304,0,1,60,4,0,3,8,1,0,0,279,157,61,47,97,458,34,236,0,6,13,2,119,4,0,25,5,2,1,8,0,59,2,0,3,0,5,1,0,0,3,0,12,0,0,0,0,0,0,0
CENCY056,4735,CENCY,Central area cycle surveys,530290,181555,Bloomsbury Way,Camden,Central,51.51789831,-0.123603932,0,0,83,1,0,4,5,2,0,0,316,174,64,46,107,666,20,196,0,7,14,0,99,1,0,32,6,1,1,8,0,76,4,3,6,0,5,2,0,0,0,0,14,0,0,0,0,0,0,0
CENCY057,1652,CENCY,Central area cycle surveys,530281,181909,Southampton Row,Camden,Central,51.52108164,-0.123602818,0,1,61,2,0,5,5,2,0,0,187,155,38,45,70,689,21,209,0,8,14,0,105,2,0,29,5,0,1,0,0,42,2,5,4,1,2,2,0,0,0,0,15,0,0,0,0,0,0,0
CENCY058,2303,CENCY,Central area cycle surveys,529989,181571,Bloomsbury Street,Camden,Central,51.51811138,-0.127933669,0,1,96,2,0,4,3,4,0,0,390,203,74,44,115,711,24,165,0,9,17,0,85,1,0,36,6,1,1,9,0,113,5,7,5,0,6,3,0,0,1,0,17,0,0,0,0,0,0,0
CENCY059,1503,CENCY,Central area cycle surveys,529338,182151,Tottenham Court Road (north),Camden,Central,51.52347294,-0.137098134,1,1,41,1,0,4,1,6,0,0,123,105,33,27,58,566,28,169,0,5,15,0,85,0,0,27,5,0,0,4,0,35,3,9,2,1,2,4,0,0,0,0,9,0,0,0,0,0,0,0
CENCY060,2158,CENCY,Central area cycle surveys,529695,181599,Tottenham Court Road (south),Camden,Central,51.51843052,-0.132158208,0,1,93,2,0,6,3,5,0,0,388,187,77,41,120,729,38,217,0,10,19,0,110,0,0,36,9,0,2,10,0,122,6,9,5,0,5,3,0,0,1,0,15,0,0,0,0,0,0,0
CENCY061,5050,CENCY,Central area cycle surveys,529488,181323,Oxford Street (east),Westminster,Central,51.51599764,-0.13524121,0,5,98,2,0,5,5,6,0,0,417,175,82,34,113,667,36,189,0,10,20,0,96,0,0,29,8,0,4,13,0,264,6,17,6,0,3,3,0,0,1,0,12,0,0,1,0,0,0,0
CENCY062,1263,CENCY,Central area cycle surveys,529856,181219,Charing Cross Road,Camden,Central,51.51497864,-0.12997899,0,5,105,2,0,4,4,4,0,0,444,209,90,43,134,674,42,249,0,11,17,0,126,0,0,34,9,2,1,11,0,185,6,7,5,0,5,2,0,0,3,0,17,0,0,1,0,0,0,0
CENCY063,1822,CENCY,Central area cycle surveys,529032,181189,Regent Street,Westminster,Central,51.51489766,-0.141858261,0,5,95,2,0,5,6,28,0,0,388,152,76,26,109,547,33,176,0,9,20,0,89,0,0,25,9,0,4,13,1,305,5,21,6,0,2,1,0,0,1,0,12,1,0,1,0,0,0,0
CENCY064,1670,CENCY,Central area cycle surveys,528235,181247,Wigmore Street,Westminster,Central,51.51560019,-0.153316647,4,0,48,2,0,1,5,50,0,0,188,96,21,14,60,353,25,171,0,4,29,0,86,0,0,17,7,0,3,9,1,216,8,18,2,0,0,0,0,0,1,0,10,2,0,0,0,0,0,0
CENCY065,2327,CENCY,Central area cycle surveys,529379,181655,Mortimer Street,Westminster,Central,51.51900617,-0.136689438,0,1,86,2,0,5,3,10,0,0,322,150,71,31,96,651,28,201,0,8,16,0,100,0,0,33,8,0,4,8,0,184,5,17,4,0,4,4,0,0,1,0,12,0,0,0,0,0,0,0
CENCY066,4047,CENCY,Central area cycle surveys,531520,181821,Farringdon Road (near station),Camden,Central,51.52000396,-0.105787897,0,1,72,4,0,4,17,4,1,0,107,99,33,35,60,575,22,227,0,6,11,0,126,0,0,19,6,0,0,2,1,21,2,7,1,0,0,4,0,1,0,0,12,0,0,0,0,0,0,0
CENCY067,1048,CENCY,Central area cycle surveys,531299,181348,Fetter Lane,City of London,Central,51.51580469,-0.109147368,0,1,76,4,0,4,13,3,0,0,129,111,41,37,66,516,27,242,0,6,10,1,123,0,0,22,3,1,0,3,1,28,1,5,1,0,1,2,0,0,1,0,13,0,0,0,0,0,0,0
CENCY068,3048,CENCY,Central area cycle surveys,531421,182750,Rosebery Avenue (north),Islington,Central,51.52837545,-0.106867726,0,1,32,1,0,2,4,8,0,0,90,72,14,25,47,516,5,202,0,2,7,0,118,1,0,24,4,0,0,1,1,14,3,10,0,0,0,4,0,1,0,0,9,0,0,0,0,0,0,0
CENCY069,2243,CENCY,Central area cycle surveys,532099,182025,Goswell Road (south),Islington,Central,51.52170221,-0.097371271,1,2,81,4,2,5,14,4,1,0,110,80,32,24,58,571,21,228,0,7,9,0,132,0,0,24,9,0,1,2,1,13,3,8,1,0,3,6,0,1,1,0,14,0,0,0,0,0,0,0
CENCY071,1511,CENCY,Central area cycle surveys,528827,181674,Portland Place,Westminster,Central,51.51930296,-0.144633825,3,0,75,1,0,5,5,29,0,0,223,126,42,16,86,534,28,172,0,4,16,0,87,0,0,18,5,0,3,8,1,220,5,24,4,0,1,3,0,0,1,0,12,1,0,0,0,0,0,0
CENCY072,2525,CENCY,Central area cycle surveys,529744,180897,Shaftesbury Avenue,Westminster,Central,51.51211064,-0.13171055,0,6,104,1,0,3,4,3,0,0,435,186,97,38,131,589,45,245,0,8,18,1,126,0,0,29,10,1,1,12,0,234,6,6,6,0,6,2,0,0,3,0,12,0,0,1,0,0,0,0
CENCY073,1737,CENCY,Central area cycle surveys,529948,182336,Tavistock Square (A4200),Camden,Central,51.52499557,-0.128242375,0,1,39,1,1,2,1,3,0,0,142,151,24,43,67,621,28,199,0,9,14,0,101,2,0,39,5,0,1,3,1,27,0,4,1,1,2,4,0,0,0,0,8,0,0,0,0,0,0,0
CENCY074,2056,CENCY,Central area cycle surveys,530738,182378,Grays Inn Road (north),Camden,Central,51.52519085,-0.116845851,0,0,31,1,0,3,6,9,0,0,130,137,16,42,65,597,18,242,0,7,11,0,128,2,0,38,4,0,0,3,1,31,2,7,1,1,1,2,0,0,0,0,11,0,0,0,0,0,0,0
CENCY075,4192,CENCY,Central area cycle surveys,528462,181105,Oxford Street (west),Westminster,Central,51.51427255,-0.150098739,3,4,61,0,0,2,5,41,0,0,257,113,38,16,67,405,24,156,0,3,19,0,79,0,0,17,8,0,3,7,1,257,8,19,2,0,0,0,0,0,2,0,10,2,0,0,0,0,0,0
CENCY076,496,CENCY,Central area cycle surveys,527880,181587,Gloucester Place,Westminster,Central,51.51873609,-0.158306683,4,0,18,3,0,0,5,60,0,0,150,81,5,15,46,325,19,166,0,2,39,0,88,0,0,28,8,0,4,9,2,125,7,15,2,0,0,1,0,0,2,0,9,1,0,0,0,0,0,0
CENCY077,432,CENCY,Central area cycle surveys,528046,181576,Baker Street,Westminster,Central,51.51859967,-0.155919513,4,0,30,2,0,1,6,60,0,0,157,85,12,17,51,327,19,178,0,2,40,0,92,0,0,22,6,0,4,10,1,150,7,15,2,0,0,0,0,0,2,0,10,1,0,0,0,0,0,0
CENCY078,610,CENCY,Central area cycle surveys,528958,180259,Piccadilly,Westminster,Central,51.50655689,-0.143263939,2,6,58,0,0,2,4,12,0,0,266,100,47,22,57,278,32,160,0,5,15,0,82,0,0,20,7,0,3,5,0,217,3,2,2,0,2,0,0,0,2,0,5,1,0,1,0,0,0,0
CENCY079,1405,CENCY,Central area cycle surveys,530861,179909,York Road,Lambeth,Central,51.50297453,-0.115989582,3,0,8,1,0,2,0,8,0,0,96,79,25,28,41,298,33,244,0,2,10,4,125,4,0,26,8,1,0,4,2,13,2,2,2,3,5,5,0,0,4,0,7,0,0,0,0,0,0,0
CENCY080,2635,CENCY,Central area cycle surveys,531233,180261,Stamford Street,Lambeth,Central,51.50605163,-0.110502207,0,1,20,2,0,2,5,6,0,0,118,91,34,28,42,372,27,211,0,3,14,5,108,4,0,24,9,2,0,3,2,9,2,2,2,4,4,5,0,0,2,0,9,0,0,0,0,0,0,0
CENCY081,1166,CENCY,Central area cycle surveys,532641,179429,Great Dover Street,Southwark,Central,51.49824648,-0.090539441,2,0,12,2,0,0,3,8,0,0,110,68,18,21,63,399,11,206,0,4,10,0,112,0,0,42,9,0,2,7,2,4,0,1,0,3,3,3,0,0,10,0,9,0,0,0,0,0,0,0
CENCY082,1437,CENCY,Central area cycle surveys,533017,179512,Long Lane,Southwark,Central,51.49890409,-0.085094696,1,0,10,1,0,0,3,6,0,0,103,61,27,24,58,337,6,188,0,3,4,1,101,0,0,39,8,0,2,9,3,5,0,1,0,0,2,2,0,0,10,0,7,0,0,0,0,0,0,0
CENCY083,4600,CENCY,Central area cycle surveys,532402,179707,Borough High Street,Southwark,Central,51.5008007,-0.093876239,1,0,12,2,0,1,2,8,0,0,121,72,23,25,68,456,13,192,0,5,12,2,100,0,0,40,6,0,2,8,2,5,0,3,0,4,3,2,0,0,10,0,10,0,0,0,0,0,0,0
CENCY084,2046,CENCY,Central area cycle surveys,532476,180142,Southwark Street,Southwark,Central,51.5046925,-0.092647537,1,0,29,3,0,1,5,5,0,0,127,77,32,29,74,429,32,173,0,5,9,4,87,0,0,35,5,0,4,8,1,6,1,3,0,4,3,2,0,0,10,0,14,0,0,0,0,0,0,0
CENCY085,4490,CENCY,Central area cycle surveys,532070,179338,Newington Causeway,Southwark,Central,51.49756228,-0.09879453,2,0,8,2,0,0,3,11,0,0,81,58,15,25,47,447,12,201,0,2,10,0,107,0,0,49,7,0,0,3,2,7,2,1,1,4,2,6,0,0,9,0,10,0,0,0,0,0,0,0
CENCY086,6715,CENCY,Central area cycle surveys,532299,180851,Upper Thames Street (west of Southwark Bridge),City of London,Central,51.51110533,-0.094930526,0,2,58,5,3,5,14,4,1,0,163,109,62,47,91,381,55,235,0,7,11,3,120,0,0,25,2,0,3,6,0,31,1,2,0,0,6,3,0,0,3,0,16,0,0,0,0,0,0,0
CENCY087,4370,CENCY,Central area cycle surveys,533110,180659,Lower Thames Street,City of London,Central,51.50918964,-0.08332324,2,1,41,1,3,2,11,7,0,0,218,133,78,58,132,334,44,216,0,5,5,4,111,0,0,27,3,0,5,8,0,31,1,0,1,0,10,3,0,0,4,0,23,0,0,0,0,0,0,0
CENCY088,6247,CENCY,Central area cycle surveys,531813,182118,Clerkenwell Road (east),Islington,Central,51.52260471,-0.101456363,0,1,52,4,0,5,12,4,1,0,96,74,23,24,53,573,17,215,0,6,8,0,124,0,0,21,10,0,0,2,1,8,2,8,2,0,1,6,0,1,0,0,13,0,0,0,0,0,0,0
CENCY089,6098,CENCY,Central area cycle surveys,532385,182387,Old Street,Islington,Central,51.5248884,-0.09311554,2,3,63,2,1,3,10,3,2,0,97,60,30,22,44,562,13,163,0,6,8,0,101,0,0,25,11,0,1,2,0,7,1,6,2,0,7,6,0,1,1,0,12,0,0,0,0,0,0,0
CENCY090,1566,CENCY,Central area cycle surveys,531959,182331,Goswell Road (north),Islington,Central,51.52448477,-0.099273477,0,2,45,2,0,5,9,5,1,0,82,59,20,20,45,591,14,196,0,6,10,0,116,0,0,24,9,0,1,2,1,6,2,8,2,0,2,6,0,1,0,0,13,0,0,0,0,0,0,0
CENCY091,1290,CENCY,Central area cycle surveys,532500,181570,London Wall (west),City of London,Central,51.51751954,-0.091765782,1,1,93,2,5,5,18,2,1,0,181,117,69,52,120,466,56,256,0,8,9,1,137,0,0,20,7,0,4,2,0,32,2,2,0,0,11,4,0,1,2,0,24,0,0,0,0,0,0,0
CENCY092,1545,CENCY,Central area cycle surveys,532991,181479,London Wall (east),City of London,Central,51.5165865,-0.084727903,3,1,66,3,5,5,18,4,1,0,214,151,80,62,133,444,49,261,0,8,10,0,138,0,0,27,4,0,4,3,0,40,1,1,1,0,13,4,0,0,2,0,29,0,0,0,0,0,0,0
CENCY094,571,CENCY,Central area cycle surveys,533438,181325,Houndsditch,City of London,Central,51.51509729,-0.078347882,3,1,49,2,4,5,13,10,1,0,204,145,72,63,116,354,44,233,0,6,7,1,121,0,0,32,5,0,4,4,0,43,0,1,2,0,13,2,0,0,2,0,26,0,0,0,0,0,0,0
CENCY095,801,CENCY,Central area cycle surveys,533375,181312,Bevis Marks,City of London,Central,51.51499533,-0.079260173,3,1,58,2,4,5,13,10,1,0,207,147,73,63,119,352,44,229,0,7,7,2,120,0,0,33,5,0,4,4,0,41,1,1,2,0,13,3,0,0,2,0,26,0,0,0,0,0,0,0
CENCY096,2194,CENCY,Central area cycle surveys,530948,182543,King's Cross Road,Camden,Central,51.52662502,-0.113759252,0,1,31,1,0,2,5,8,0,0,118,121,14,44,60,567,18,226,0,6,11,0,125,2,0,39,4,0,0,2,1,29,2,7,1,0,0,2,0,0,0,0,12,0,0,0,0,0,0,0
CENCY097,332,CENCY,Central area cycle surveys,533312,179870,Crucifix Lane (Druid Street),Southwark,Central,51.50205179,-0.080712208,2,0,10,1,0,1,3,7,0,0,128,67,30,37,55,327,8,167,0,4,2,3,85,0,0,34,8,0,2,9,1,5,0,1,0,0,1,3,0,0,7,0,6,0,0,0,0,0,0,0
CENCY098,1242,CENCY,Central area cycle surveys,530074,178985,Horseferry Road (east of Tufton Street),Westminster,Central,51.49485236,-0.127662225,4,0,14,0,0,0,1,10,0,0,51,57,15,10,30,268,16,181,0,2,8,3,91,0,0,23,2,0,1,3,0,7,2,2,1,0,5,1,0,0,4,0,5,0,0,0,0,1,0,0
CENCY099,2452,CENCY,Central area cycle surveys,531470,179940,The Cut,Lambeth,Central,51.50311191,-0.107208901,0,0,8,3,0,2,1,8,0,0,95,82,21,27,39,404,26,219,0,3,12,4,112,4,0,31,8,0,0,4,3,5,1,2,2,4,4,5,0,0,6,0,6,0,0,0,0,0,0,0
CENCY100,2071,CENCY,Central area cycle surveys,532590,182275,Bunhill Row,Islington,Central,51.52383387,-0.090204423,2,3,70,3,2,4,11,0,3,0,124,90,42,27,70,574,16,214,0,6,9,0,123,0,0,27,11,0,1,2,0,14,1,4,2,0,7,6,0,1,2,0,13,0,0,0,0,0,0,0
CENCY101,2122,CENCY,Central area cycle surveys,531746,182195,St. John Street,Islington,Central,51.52331229,-0.102392758,0,1,41,4,0,4,10,5,0,0,91,74,17,25,50,548,14,210,0,5,8,0,122,0,0,20,10,0,0,2,1,7,2,8,2,0,1,6,0,1,0,0,13,0,0,0,0,0,0,0
CENCY102,1815,CENCY,Central area cycle surveys,530294,182373,Hunter Street,Camden,Central,51.52524843,-0.12324412,0,1,33,0,1,3,3,5,0,0,138,147,19,42,70,591,25,225,0,10,14,0,112,2,0,39,5,0,1,3,2,32,1,4,0,1,1,1,0,0,0,0,10,0,0,0,0,0,0,0
CENCY103,1720,CENCY,Central area cycle surveys,530456,181277,Great Queen Street,Camden,Central,51.51536176,-0.12131566,0,0,80,2,0,3,6,1,0,0,311,174,65,47,115,559,31,217,0,9,13,2,108,0,0,34,8,2,1,9,0,74,3,3,6,0,4,1,0,0,2,0,13,0,0,0,0,0,0,0
CENCY104,2573,CENCY,Central area cycle surveys,530893,182377,Calthorpe Street,Camden,Central,51.52514599,-0.114613246,0,0,32,1,0,3,5,8,0,0,125,128,16,45,64,587,17,241,0,4,11,0,130,2,0,42,4,0,0,2,1,24,2,7,1,0,1,3,0,0,0,0,13,0,0,0,0,0,0,0
CENCY105,474,CENCY,Central area cycle surveys,528708,181111,New Bond Street,Westminster,Central,51.51427053,-0.146553384,0,5,90,0,0,4,5,35,0,0,326,126,60,20,86,453,32,173,0,4,22,0,87,0,0,22,7,0,3,9,1,316,6,21,5,0,1,1,0,0,2,0,12,1,0,1,0,0,0,0
CENCY106,793,CENCY,Central area cycle surveys,529935,179294,Great Smith Street (north of Little Smith Street),Westminster,Central,51.49766117,-0.129549712,5,1,13,0,0,1,1,7,0,0,62,67,11,11,37,225,16,201,0,2,8,3,102,0,0,25,2,0,1,4,0,6,1,1,1,0,3,0,0,0,2,0,5,0,0,0,0,0,0,0
CENCY107,2453,CENCY,Central area cycle surveys,532304,181916,Beech Street,City of London,Central,51.52067475,-0.094459129,1,2,81,3,4,3,15,3,1,0,141,88,44,32,72,551,45,238,0,8,8,0,134,0,0,19,10,0,1,2,0,20,2,6,1,0,8,6,0,1,1,0,16,0,0,0,0,0,0,0
CENCY108,1952,CENCY,Central area cycle surveys,529899,181767,Montague Place,Camden,Central,51.51989344,-0.129157866,0,1,92,2,0,5,2,5,0,0,282,179,60,44,103,738,29,172,0,7,17,0,87,1,0,36,6,0,1,6,0,95,3,8,5,0,2,3,0,0,0,0,14,0,0,0,0,0,0,0
CENCY109,959,CENCY,Central area cycle surveys,529481,179337,Buckingham Gate,Westminster,Central,51.49815168,-0.136070539,10,1,18,0,0,1,1,7,0,0,77,74,13,17,55,250,17,192,1,3,8,1,106,0,0,23,2,0,1,4,0,9,1,1,1,0,4,0,0,0,0,0,4,0,0,0,0,0,0,0
CENCY110,496,CENCY,Central area cycle surveys,528360,181467,Thayer Street,Westminster,Central,51.51754891,-0.151436155,4,0,42,2,0,1,6,48,0,0,190,104,23,18,69,364,28,182,0,4,29,0,92,0,0,18,7,0,3,9,1,209,8,21,2,0,0,0,0,0,1,0,11,1,0,0,0,0,0,0
CENCY111,1795,CENCY,Central area cycle surveys,533001,180827,Eastcheap,City of London,Central,51.510725,-0.084829635,2,1,50,2,4,4,14,7,1,0,238,140,78,61,144,347,50,223,0,9,4,4,115,0,0,25,3,0,5,7,0,34,1,0,1,0,12,2,0,0,4,0,25,0,0,0,0,0,0,0
CENCY112,689,CENCY,Central area cycle surveys,528714,180840,Grosvenor Street,Westminster,Central,51.51183376,-0.146565818,0,5,80,0,0,4,6,29,0,0,310,122,57,23,84,400,32,190,0,5,20,0,97,0,0,21,7,0,3,7,1,296,6,19,5,0,2,0,0,0,2,0,10,2,0,1,0,0,0,0
CENCY113,1406,CENCY,Central area cycle surveys,527511,181729,Seymour Place,Westminster,Central,51.52009556,-0.163570666,4,0,6,4,0,0,4,63,0,0,144,76,5,14,53,304,12,155,0,2,46,0,87,0,0,36,8,1,1,9,4,88,7,7,2,0,0,2,0,0,3,0,9,0,0,0,0,0,0,0
CENCY114,4166,CENCY,Central area cycle surveys,530407,182530,Regent Square,Camden,Central,51.52663327,-0.121558134,0,1,22,0,1,1,3,6,0,0,122,135,16,38,62,565,22,207,0,7,12,0,107,2,0,36,3,0,1,3,2,31,1,2,0,1,1,1,0,0,0,0,8,0,0,0,0,0,0,0
CENCY115,340,CENCY,Central area cycle surveys,528577,181546,Wimpole Street,Westminster,Central,51.51820956,-0.148281657,4,0,65,2,0,4,5,39,0,0,230,121,37,16,80,442,28,174,0,5,22,0,89,0,0,18,5,0,3,9,1,220,8,22,3,0,1,2,0,0,1,0,14,1,0,0,0,0,0,0
CENCY116,1304,CENCY,Central area cycle surveys,527910,181397,George Street (east),Westminster,Central,51.51702182,-0.157943437,4,0,26,3,0,0,6,61,0,0,156,80,8,14,47,317,19,161,0,3,38,0,83,0,0,26,7,0,4,9,2,149,6,16,2,0,0,1,0,0,2,0,11,3,0,0,0,0,0,0
CENCY117,2063,CENCY,Central area cycle surveys,530136,181785,Montague Street,Camden,Central,51.5200007,-0.125737307,0,1,74,2,0,3,4,3,0,0,252,170,50,48,96,690,22,198,0,8,14,0,100,1,0,33,5,0,1,6,0,66,1,7,6,0,3,3,0,0,0,0,14,0,0,0,0,0,0,0
CENCY118,1016,CENCY,Central area cycle surveys,530451,181155,Drury Lane,Westminster,Central,51.51426655,-0.121432784,0,0,82,2,0,3,6,1,0,0,338,177,70,47,113,529,30,225,0,8,12,2,112,4,0,33,7,2,1,10,0,76,2,2,6,0,4,1,0,0,3,0,11,0,0,0,0,0,0,0
CENCY119,2882,CENCY,Central area cycle surveys,529543,181973,Torrington Place,Camden,Central,51.52182637,-0.134210305,0,1,75,2,0,5,1,6,0,0,188,132,46,33,72,641,28,194,0,6,17,0,97,1,0,32,5,0,1,4,0,43,3,8,3,1,3,4,0,0,0,0,9,0,0,0,0,0,0,0
CENCY120,1483,CENCY,Central area cycle surveys,529979,182682,Mabledon Place,Camden,Central,51.52809781,-0.127668227,0,1,16,0,1,2,1,5,0,0,99,127,20,41,46,531,25,176,0,8,13,0,92,2,0,39,4,0,1,3,1,48,0,3,0,1,1,1,0,0,0,0,7,0,0,0,0,0,0,0
CENCY121,3682,CENCY,Central area cycle surveys,531131,183022,Claremont Square,Islington,Central,51.53088714,-0.110944653,0,1,11,1,0,1,5,8,0,0,110,78,21,33,44,404,11,202,0,4,8,0,118,1,0,34,3,0,0,1,2,16,1,5,1,0,1,3,0,0,0,0,9,0,0,0,0,0,0,0
CENCY122,1974,CENCY,Central area cycle surveys,533129,181136,Leadenhall Street,City of London,Central,51.51347169,-0.082869671,3,1,62,3,5,5,16,8,1,0,228,151,78,67,144,372,50,244,0,9,8,2,127,0,0,29,3,0,6,6,0,40,1,0,1,0,13,3,0,0,2,0,28,0,0,0,0,0,0,0
CENCY123,1874,CENCY,Central area cycle surveys,532146,181058,Cannon Street,City of London,Central,51.51300131,-0.097056468,0,2,76,4,3,4,16,0,1,0,149,99,60,41,75,358,53,228,0,8,10,2,117,0,0,19,3,0,2,7,0,25,1,2,0,0,6,2,0,0,0,0,14,0,0,0,0,0,0,0
CENCY124,1147,CENCY,Central area cycle surveys,532115,182661,Central Street,Islington,Central,51.52741386,-0.096902504,1,2,35,2,0,2,6,7,1,0,83,59,15,22,49,560,10,172,0,1,6,0,105,0,0,29,10,0,0,3,1,9,1,7,2,0,1,6,0,1,0,0,9,0,0,0,0,0,0,0
CENCY125,1713,CENCY,Central area cycle surveys,531754,181769,Charterhouse Street,Islington,Central,51.51948217,-0.102436654,0,1,82,4,1,4,18,4,1,0,114,95,35,28,60,540,26,228,0,7,10,1,127,0,0,20,5,0,0,2,1,11,3,7,1,0,1,4,0,1,0,0,8,0,0,0,0,0,0,0
CENCY126,4464,CENCY,Central area cycle surveys,532663,181212,Prince's Street,City of London,Central,51.51426417,-0.089552603,2,1,71,3,5,5,16,2,1,0,202,120,73,57,133,386,52,239,0,8,11,3,126,0,0,20,3,0,4,6,0,32,1,0,1,0,11,2,0,0,1,0,26,0,0,0,0,0,0,0
CENCY127,2592,CENCY,Central area cycle surveys,532989,182132,Paul Street,Islington,Central,51.52245509,-0.084510507,2,1,65,2,3,6,10,2,2,0,163,119,60,37,87,586,14,235,0,8,9,0,128,0,0,29,11,0,2,2,0,26,1,4,3,0,12,3,0,1,2,0,19,0,0,0,0,0,0,0
CENCY128,2412,CENCY,Central area cycle surveys,531516,181175,Fleet Street,City of London,Central,51.51419959,-0.106086347,0,1,75,4,1,4,14,3,1,0,107,99,39,32,62,441,28,216,0,7,12,2,109,0,0,16,2,1,0,4,0,11,2,6,1,0,0,1,0,0,1,0,12,0,0,0,0,0,0,0
CENCY129,1324,CENCY,Central area cycle surveys,532271,182136,Golden Lane,Islington,Central,51.52265949,-0.094851974,1,3,62,3,2,3,13,3,2,0,104,72,37,22,47,593,19,205,0,6,8,0,120,0,0,22,11,0,1,2,0,10,1,6,2,0,6,6,0,1,1,0,16,0,0,0,0,0,0,0
CENCY130,1301,CENCY,Central area cycle surveys,532358,181348,Gresham Street,City of London,Central,51.5155578,-0.093894397,0,2,79,4,4,2,19,0,1,0,149,109,66,46,105,409,58,243,0,9,9,2,129,0,0,18,3,0,4,3,0,31,2,2,0,0,8,2,0,1,1,0,19,0,0,0,0,0,0,0
CENCY131,2246,CENCY,Central area cycle surveys,528730,181699,New Cavendish Street,Westminster,Central,51.51954972,-0.146021956,3,0,72,2,0,5,5,30,0,0,218,121,36,17,85,476,28,165,0,4,18,0,84,0,0,18,8,0,3,8,1,217,6,24,4,0,1,3,0,0,0,0,14,1,0,0,0,0,0,0
CENCY132,417,CENCY,Central area cycle surveys,528411,180402,South Audley Street,Westminster,Central,51.50796644,-0.151089101,1,5,36,0,0,1,4,14,0,0,161,67,29,13,37,226,26,159,0,4,10,0,79,0,0,10,5,0,3,4,0,189,2,6,2,0,1,0,0,0,1,0,3,3,0,0,0,0,0,0
CENCY133,1257,CENCY,Central area cycle surveys,532976,181302,Old Broad Street,City of London,Central,51.51499943,-0.085010667,3,1,62,3,5,5,18,4,1,0,198,147,77,60,132,404,48,253,0,8,10,2,133,0,0,25,4,0,4,5,0,37,1,1,1,0,14,4,0,0,2,0,29,0,0,0,0,0,0,0
CENCY134,806,CENCY,Central area cycle surveys,529563,181078,Wardour Street,Westminster,Central,51.51377872,-0.134250912,0,6,105,2,0,5,5,5,0,0,442,187,95,41,129,616,43,218,0,10,22,0,112,0,0,29,10,1,4,12,0,273,7,16,6,0,6,2,0,0,2,0,15,0,0,1,0,0,0,0
CENCY135,457,CENCY,Central area cycle surveys,529017,180357,Berkeley Street,Westminster,Central,51.50742413,-0.142378482,2,6,66,0,0,2,4,12,0,0,295,107,51,25,71,318,32,178,0,6,14,0,90,0,0,18,7,0,3,8,0,226,3,2,3,0,2,0,0,0,2,0,4,1,0,1,0,0,0,0
CENCY136,3116,CENCY,Central area cycle surveys,531581,181571,Snow Hill (West Smithfield),City of London,Central,51.51774313,-0.105002475,0,1,79,4,1,3,16,4,1,0,104,93,35,33,62,523,25,227,0,6,9,1,121,0,0,18,4,0,0,3,1,13,3,7,1,0,1,4,0,1,1,0,11,0,0,0,0,0,0,0
CENCY137,2086,CENCY,Central area cycle surveys,531836,178783,Churchyard Row,Southwark,Central,51.49262932,-0.102370686,1,0,3,0,0,0,2,15,0,0,53,35,3,26,43,332,6,168,0,1,9,0,96,0,0,35,6,0,1,4,2,8,4,2,1,4,1,6,0,0,5,0,7,0,0,0,0,1,0,0
CENCY138,1262,CENCY,Central area cycle surveys,530834,178564,Black Prince Road (east of Gibson Street),Lambeth,Central,51.49089379,-0.116876602,0,0,4,0,0,0,2,19,0,0,42,37,11,16,23,277,5,199,0,1,12,2,102,1,0,26,3,0,0,3,0,1,2,1,0,1,3,6,0,0,7,0,7,1,0,0,0,1,0,0
CENCY139,4135,CENCY,Central area cycle surveys,529385,179899,The Mall,Westminster,Central,51.50322417,-0.137246818,5,6,30,0,0,2,3,4,0,0,234,93,39,27,67,292,34,224,0,6,13,1,117,0,0,23,5,0,1,7,0,106,3,0,1,0,4,0,0,0,2,0,5,0,0,1,0,0,0,0
CENCY140,1005,CENCY,Central area cycle surveys,530758,179947,Belvedere Road,Lambeth,Central,51.50333984,-0.117458637,3,0,11,1,0,2,1,7,0,0,111,83,29,28,43,298,33,246,0,2,11,4,126,4,0,26,8,1,0,4,2,16,2,0,2,1,5,4,0,0,5,0,7,0,0,0,0,0,0,0
CENCY141,707,CENCY,Central area cycle surveys,529466,179479,Petty France,Westminster,Central,51.49943122,-0.136234451,6,1,19,0,0,2,2,7,0,0,87,75,14,18,53,238,21,199,1,3,11,1,107,0,0,21,2,0,1,4,0,29,1,0,1,0,4,0,0,0,1,0,4,0,0,0,0,0,0,0
CENCY142,1873,CENCY,Central area cycle surveys,529650,179658,Birdcage Walk,Westminster,Central,51.5009977,-0.133519437,5,6,21,0,0,2,3,5,0,0,117,84,23,21,54,227,30,211,0,4,11,2,110,0,0,20,4,1,1,5,0,60,1,0,1,0,4,0,0,0,1,0,5,0,0,1,0,0,0,0
CENCY143,2959,CENCY,Central area cycle surveys,528783,179794,Constitution Hill,Westminster,Central,51.50241792,-0.145953682,3,5,33,0,0,2,4,10,0,0,127,72,21,16,50,198,23,153,0,5,16,0,83,0,0,16,2,0,2,5,0,103,1,1,2,0,2,0,0,0,0,0,3,1,0,0,0,0,0,0
CENCY144,296,CENCY,Central area cycle surveys,530098,180856,Garrick Street,Westminster,Central,51.51166086,-0.126627261,0,6,95,1,0,3,3,2,0,0,392,167,81,38,111,521,34,222,0,7,15,2,113,4,0,29,7,2,1,12,0,142,4,2,5,0,6,1,0,0,4,0,13,0,0,1,0,0,0,0
CENCY145,841,CENCY,Central area cycle surveys,528505,181468,Welbeck Street,Westminster,Central,51.51752497,-0.149347186,4,0,57,3,0,2,5,43,0,0,227,114,33,16,80,393,27,172,0,3,23,0,87,0,0,17,7,0,3,10,1,222,9,22,2,0,1,0,0,0,1,0,13,1,0,0,0,0,0,0
CENCY146,783,CENCY,Central area cycle surveys,527511,181613,Crawford Street (west),Westminster,Central,51.51905309,-0.1636126,4,0,7,4,0,0,5,67,0,0,150,85,6,15,58,319,15,170,0,2,42,0,93,0,0,38,7,1,1,11,4,90,8,7,2,0,0,2,0,0,3,0,9,1,0,0,1,0,0,0
CENCY147,760,CENCY,Central area cycle surveys,528724,180978,Brook Street,Westminster,Central,51.51307165,-0.146371454,0,5,83,0,0,4,6,33,0,0,326,130,62,22,86,449,32,176,0,4,20,0,89,0,0,22,7,0,3,10,1,319,6,21,5,0,2,0,0,0,2,0,11,1,0,1,0,0,0,0
CENCY148,1462,CENCY,Central area cycle surveys,530629,182017,Lambs Conduit Street,Camden,Central,51.52197189,-0.118549864,0,0,57,0,0,3,6,5,0,0,139,148,21,41,62,666,14,217,0,4,16,0,111,2,0,35,4,0,0,0,1,25,1,6,1,0,2,1,0,0,0,0,11,0,0,0,0,0,0,0
CENCY149,2389,CENCY,Central area cycle surveys,531042,180301,Upper Ground,Lambeth,Central,51.50645537,-0.113237804,0,1,25,1,0,2,5,5,0,0,141,105,39,32,49,373,38,238,0,5,13,5,122,4,0,29,8,2,0,4,2,23,1,2,2,2,5,4,0,0,4,0,11,0,0,0,0,0,0,0
CENCY150,1293,CENCY,Central area cycle surveys,532048,180353,Sumner Steet,Southwark,Central,51.50668872,-0.098731675,1,1,47,4,1,2,9,4,0,0,133,83,32,34,74,436,44,215,0,6,10,3,110,0,0,33,4,0,1,6,1,8,1,3,1,4,4,2,0,0,6,0,12,0,0,0,0,0,0,0
CENCY151,599,CENCY,Central area cycle surveys,531087,179378,Hercules Road,Lambeth,Central,51.49815033,-0.11293247,0,0,3,0,0,0,1,11,0,0,73,65,10,26,35,366,26,235,0,1,14,2,120,4,0,29,8,0,0,3,2,4,1,1,2,5,4,7,0,0,3,0,5,0,0,0,0,1,0,0
CENCY152,1819,CENCY,Central area cycle surveys,531866,179687,Webber Street (east),Southwark,Central,51.50074616,-0.101601294,1,0,8,3,0,2,2,12,0,0,109,75,21,30,53,498,22,225,0,4,14,1,116,0,0,43,8,0,0,5,4,6,1,3,2,4,4,6,0,0,9,0,10,0,0,0,0,0,0,0
CENCY153,627,CENCY,Central area cycle surveys,532979,179385,Weston Street,Southwark,Central,51.49777174,-0.085689632,1,0,10,1,0,0,3,5,0,0,102,56,25,25,58,347,6,194,0,4,4,0,107,0,0,42,9,0,2,10,3,5,0,1,0,0,0,3,0,0,10,0,8,0,0,0,0,0,0,0
CENCY154,849,CENCY,Central area cycle surveys,531198,180171,Cornwall Road (north),Lambeth,Central,51.50525096,-0.111039664,0,1,14,2,0,2,3,6,0,0,105,85,29,25,39,362,28,213,0,3,13,5,109,4,0,25,9,2,0,4,2,8,2,2,2,4,4,5,0,0,4,0,9,0,0,0,0,0,0,0
CENCY156,743,CENCY,Central area cycle surveys,531036,181253,Carey Street,Camden,Central,51.51501198,-0.112970723,0,1,80,3,0,4,10,4,0,0,176,131,49,43,71,534,24,228,0,6,13,2,115,2,0,19,5,1,0,4,0,56,2,5,2,0,3,1,0,0,2,0,15,0,0,0,0,0,0,0
CENCY157,1106,CENCY,Central area cycle surveys,533124,181879,Appold Street,Hackney,Central,51.52014976,-0.082661306,3,1,72,1,4,5,18,5,2,0,196,139,73,48,112,537,32,247,0,8,8,0,131,0,0,30,9,0,4,2,0,46,0,2,1,0,14,3,0,1,2,0,22,0,0,0,0,0,0,0
CENCY158,997,CENCY,Central area cycle surveys,532371,181588,Wood Street,City of London,Central,51.51771151,-0.093617104,1,2,89,3,5,3,19,3,1,0,167,105,61,46,101,457,60,262,0,8,9,1,139,0,0,18,8,0,4,2,0,29,2,4,0,0,9,4,0,1,1,0,22,0,0,0,0,0,0,0
CENCY159,234,CENCY,Central area cycle surveys,533116,180993,Lime Street,City of London,Central,51.51218969,-0.083110848,2,1,58,3,5,5,15,7,1,0,242,150,79,64,146,364,51,235,0,9,4,3,120,0,0,27,3,0,6,7,0,38,1,0,1,0,12,3,0,0,1,0,27,0,0,0,0,0,0,0
CENCY160,1059,CENCY,Central area cycle surveys,529760,181011,Old Compton Street,Westminster,Central,51.51313145,-0.131438192,0,6,105,2,0,4,4,4,0,0,447,200,94,41,137,629,43,243,0,9,18,1,125,0,0,29,9,1,2,12,0,228,6,6,6,0,6,2,0,0,3,0,15,0,0,1,0,0,0,0
CENCY161,730,CENCY,Central area cycle surveys,531017,182631,Lloyd Baker Street,Islington,Central,51.52739985,-0.112732487,0,1,24,1,0,2,7,9,0,0,104,115,13,41,56,554,16,212,0,5,10,0,119,2,0,34,4,0,0,2,2,28,2,9,0,0,0,2,0,0,0,0,12,0,0,0,0,0,0,0
CENCY162,646,CENCY,Central area cycle surveys,529260,181973,Fitzroy Street,Camden,Central,51.52189115,-0.138287038,3,1,67,2,0,5,3,12,0,0,156,109,39,25,70,568,29,186,0,6,13,0,93,0,0,28,7,0,3,5,0,85,3,16,2,0,2,4,0,0,0,0,10,0,0,0,0,0,0,0
CENCY163,362,CENCY,Central area cycle surveys,529388,179030,Emery Hill Street,Westminster,Central,51.49541403,-0.137522015,9,0,17,0,1,1,1,8,0,0,76,76,14,15,57,289,15,227,3,4,9,1,122,0,0,33,3,0,1,5,1,11,3,1,1,0,5,0,0,0,1,0,4,0,0,0,0,0,0,0
CENCY164,295,CENCY,Central area cycle surveys,530633,178925,Lambeth High Street,Lambeth,Central,51.49418439,-0.119636613,2,0,6,0,0,0,1,21,0,0,53,61,16,18,30,294,9,215,0,1,14,2,110,1,0,27,5,0,0,4,2,5,2,1,0,1,5,6,0,0,4,0,5,1,0,0,0,1,0,0
CENCY165,912,CENCY,Central area cycle surveys,533617,181773,Brushfield Street,Tower Hamlets,Central,51.51908091,-0.075600097,3,1,59,1,3,3,12,11,0,0,198,151,75,51,110,447,17,217,0,7,7,0,114,0,0,36,7,0,2,3,0,48,0,2,2,0,13,1,0,0,2,0,23,0,0,0,0,0,0,0
CENCY166,1138,CENCY,Central area cycle surveys,532590,179424,Trinity Street (east),Southwark,Central,51.4982135,-0.091275596,2,0,12,2,0,0,3,8,0,0,108,69,18,22,63,412,11,204,0,4,10,0,112,0,0,42,9,0,2,7,2,5,0,1,0,3,3,2,0,0,10,0,9,0,0,0,0,0,0,0
CENCY167,1150,CENCY,Central area cycle surveys,529730,182232,Gordon Square,Camden,Central,51.52411103,-0.131421223,0,1,38,1,0,3,1,5,0,0,144,136,29,35,65,612,30,187,0,9,14,0,94,1,0,35,7,0,0,5,0,43,2,7,2,1,2,5,0,0,0,0,10,0,0,0,0,0,0,0
CENCY168,541,CENCY,Central area cycle surveys,531498,182031,Turnmill Street,Islington,Central,51.52189624,-0.106026503,0,2,57,3,0,3,12,5,0,0,101,91,24,28,53,551,16,217,0,4,9,0,124,0,0,18,6,0,0,2,1,20,2,7,1,0,0,4,0,1,0,0,11,0,0,0,0,0,0,0
CENCY169,430,CENCY,Central area cycle surveys,530936,179369,Carlisle Street,Lambeth,Central,51.49810442,-0.115109869,3,0,4,0,0,0,1,11,0,0,68,64,10,22,35,331,21,223,0,1,11,3,113,4,0,26,7,0,0,3,2,6,1,1,2,4,4,7,0,0,3,0,4,0,0,0,0,1,0,0
CENCY170,239,CENCY,Central area cycle surveys,531378,180109,Roupell Street,Lambeth,Central,51.50465201,-0.108470745,0,1,12,3,0,2,1,7,0,0,94,79,24,26,35,384,26,204,0,3,14,5,105,4,0,29,8,0,0,5,3,5,1,2,2,4,4,5,0,0,4,0,5,0,0,0,0,0,0,0
CENCY171,435,CENCY,Central area cycle surveys,531097,179114,Lambeth Walk,Lambeth,Central,51.49577556,-0.112886485,0,0,5,0,0,0,1,21,0,0,68,62,9,27,38,355,13,236,0,1,15,2,119,0,0,35,7,0,0,4,2,4,1,1,2,4,2,7,0,0,6,0,7,0,0,0,0,1,0,0
CENCY172,357,CENCY,Central area cycle surveys,530894,180799,Temple Place,Westminster,Central,51.51096496,-0.115184373,0,1,64,3,0,4,10,0,0,0,206,137,55,41,82,430,49,244,0,4,13,4,125,4,0,26,3,2,0,6,0,51,2,2,3,0,5,0,0,0,2,0,12,0,0,0,0,0,0,0
CENCY173,638,CENCY,Central area cycle surveys,530282,180100,Horse Guards Avenue,Westminster,Central,51.50482462,-0.124256324,4,1,20,0,0,0,3,3,0,0,223,122,43,31,71,288,44,223,0,7,15,4,115,4,0,20,7,2,0,7,2,59,2,0,2,0,7,0,0,0,4,0,10,0,0,1,0,0,0,0
CENCY174,207,CENCY,Central area cycle surveys,528355,180291,Deanery Street,Westminster,Central,51.50698162,-0.15193593,1,5,34,0,0,1,1,13,0,0,144,58,21,11,28,189,26,140,0,2,10,0,70,0,0,10,5,0,2,2,0,188,2,5,2,0,0,0,0,0,1,0,4,3,0,0,0,0,0,0
CENCY175,130,CENCY,Central area cycle surveys,528412,180261,Stanhope Gate,Westminster,Central,51.50669908,-0.151125995,1,5,34,0,0,1,1,12,0,0,142,56,23,12,30,200,26,141,0,2,11,0,70,0,0,9,4,0,1,2,0,196,2,5,1,0,1,0,0,0,1,0,4,3,0,0,0,0,0,0
CENCY176,83,CENCY,Central area cycle surveys,528183,180632,Park Street,Westminster,Central,51.51008511,-0.154289039,1,0,35,0,0,1,4,25,0,0,160,70,22,9,37,227,23,157,0,3,14,0,77,0,0,14,7,0,3,6,0,183,3,16,2,0,0,0,0,0,1,0,6,4,0,0,0,0,0,0
CENCY177,1749,CENCY,Central area cycle surveys,529371,180111,Marlborough Road,Westminster,Central,51.50513255,-0.137370726,5,6,41,0,0,2,4,5,0,0,303,121,51,29,78,297,34,201,0,6,14,0,102,0,0,29,7,1,1,8,0,160,5,2,4,0,4,0,0,0,2,0,7,0,0,1,0,0,0,0
CENCY178,259,CENCY,Central area cycle surveys,529090,179114,Carlisle Place,Westminster,Central,51.49623697,-0.141781657,7,0,17,0,1,1,1,10,0,0,73,71,12,16,55,268,13,206,3,3,7,0,114,0,0,31,3,0,1,5,1,11,3,2,1,0,2,0,0,0,1,0,3,0,0,0,0,0,0,0
CENCY179,1067,CENCY,Central area cycle surveys,532982,181220,Threadneedle Street,City of London,Central,51.51426114,-0.084955157,3,1,62,3,5,5,18,4,1,0,211,150,78,62,138,392,51,252,0,8,10,2,132,0,0,24,1,0,4,6,0,36,1,0,1,0,13,4,0,0,2,0,28,0,0,0,0,0,0,0
CENCY181,253,CENCY,Central area cycle surveys,531461,181770,Greville Street,Camden,Central,51.51955936,-0.106656776,0,1,74,4,0,3,16,4,0,0,107,104,33,34,62,579,24,234,0,6,11,0,126,0,0,19,5,0,0,2,1,23,2,7,1,0,0,3,0,1,0,0,12,0,0,0,0,0,0,0
CENCY182,145,CENCY,Central area cycle surveys,531384,181984,Saffron Hill,Camden,Central,51.52150038,-0.107686204,0,2,58,3,0,4,11,5,0,0,95,97,26,29,53,562,15,217,0,3,10,0,122,0,0,19,5,0,0,2,1,20,2,7,1,0,0,3,0,1,0,0,12,0,0,0,0,0,0,0
CENCY183,519,CENCY,Central area cycle surveys,530959,180939,Arundel Street,Westminster,Central,51.51220803,-0.114196301,0,1,67,3,0,4,10,0,0,0,202,138,49,38,80,471,46,242,0,5,12,3,123,4,0,24,2,2,0,5,0,53,2,2,3,0,5,1,0,0,2,0,14,0,0,0,0,0,0,0
CENCY184,354,CENCY,Central area cycle surveys,530477,181984,Great Ormond Street,Camden,Central,51.52171044,-0.120751682,0,1,53,0,0,3,5,2,0,0,156,151,28,46,62,711,19,207,0,5,16,0,103,2,0,35,5,0,1,0,1,36,1,4,2,0,2,1,0,0,0,0,13,0,0,0,0,0,0,0
CENCY185,710,CENCY,Central area cycle surveys,527786,181183,Great Cumberland Place,Westminster,Central,51.51512668,-0.159807055,2,0,25,3,0,0,6,61,0,0,157,79,7,14,44,281,18,154,0,2,28,0,77,0,0,26,7,0,3,9,2,146,6,16,2,0,0,0,0,0,3,0,10,3,0,0,1,0,0,0
CENCY186,369,CENCY,Central area cycle surveys,527841,181619,Montagu Place,Westminster,Central,51.51903249,-0.158856866,4,0,18,3,0,0,5,58,0,0,148,85,5,15,46,323,19,164,0,1,39,0,88,0,0,33,8,0,3,9,4,117,7,15,2,0,0,1,0,0,2,0,9,1,0,0,0,0,0,0
CENCY187,319,CENCY,Central area cycle surveys,530696,181752,Princeton Street,Camden,Central,51.51957496,-0.117682906,0,0,63,2,0,3,8,5,0,0,174,143,36,42,69,638,18,220,0,6,14,0,112,1,0,30,5,1,1,2,1,47,1,6,2,0,4,1,0,0,0,0,14,0,0,0,0,0,0,0
CENCY188,146,CENCY,Central area cycle surveys,530689,181653,Eagle Street,Camden,Central,51.51868691,-0.117820418,0,0,62,2,0,3,9,5,0,0,202,147,39,40,78,635,18,235,0,6,14,0,119,1,0,28,5,1,1,3,1,57,2,6,2,0,4,1,0,0,1,0,14,0,0,0,0,0,0,0
CENCY189,320,CENCY,Central area cycle surveys,529367,181487,Berners Street,Westminster,Central,51.51749915,-0.136923904,0,4,95,2,0,5,3,11,0,0,379,167,78,32,110,652,39,202,0,10,17,0,102,0,0,28,10,0,4,11,0,221,5,17,5,0,4,3,0,0,1,0,14,0,0,1,0,0,0,0
CENCY190,295,CENCY,Central area cycle surveys,530051,182644,Hastings Street,Camden,Central,51.52773976,-0.126644918,0,1,17,0,1,2,1,4,0,0,100,131,20,40,47,553,25,180,0,8,12,0,94,2,0,37,4,0,1,3,1,51,0,2,0,1,1,2,0,0,0,0,9,0,0,0,0,0,0,0
CENCY191,474,CENCY,Central area cycle surveys,528490,181905,Devonshire Street,Westminster,Central,51.52145558,-0.149404062,4,0,29,3,0,3,4,37,0,0,150,92,22,17,67,392,25,167,0,2,24,0,86,0,0,17,7,0,3,9,1,160,6,20,1,0,1,3,0,0,0,0,11,1,0,0,0,0,0,0
CENCY192,308,CENCY,Central area cycle surveys,528392,181034,Duke Street,Westminster,Central,51.51365038,-0.151132795,0,3,56,0,0,2,4,38,0,0,235,103,32,14,62,360,24,156,0,3,21,0,78,0,0,14,7,0,3,8,1,252,6,19,2,0,0,0,0,0,1,0,9,2,0,0,0,0,0,0
CENCY193,695,CENCY,Central area cycle surveys,531390,180859,Temple Avenue,City of London,Central,51.51138914,-0.10801876,0,1,52,4,1,3,8,0,0,0,133,96,44,33,49,412,38,228,0,7,11,3,117,4,0,20,0,1,0,4,0,13,1,2,3,0,3,1,0,0,2,0,12,0,0,0,0,0,0,0
CENCY194,428,CENCY,Central area cycle surveys,533455,180728,Trinity Square,City of London,Central,51.5097284,-0.07832882,2,0,31,1,2,3,8,13,1,0,208,131,67,58,123,294,45,216,0,6,6,3,110,0,0,29,6,0,5,7,0,33,0,0,1,0,10,3,0,0,1,0,23,0,0,0,0,0,0,0
CENCY195,191,CENCY,Central area cycle surveys,531515,178914,Sullivan Row,Lambeth,Central,51.49388125,-0.106943018,1,0,4,0,0,0,2,21,0,0,66,52,5,24,44,367,6,190,0,1,16,0,101,0,0,35,11,0,0,5,3,9,3,1,2,5,2,7,0,0,8,0,8,0,0,0,0,1,0,0
CENCY196,537,CENCY,Central area cycle surveys,529334,181237,Poland Street,Westminster,Central,51.51526003,-0.137490887,0,5,104,2,0,5,5,10,0,0,418,182,83,33,114,626,37,183,0,10,21,0,93,0,0,29,9,0,4,14,0,282,6,17,6,0,4,2,0,0,1,0,13,1,0,1,0,0,0,0
CENCY197,526,CENCY,Central area cycle surveys,530900,178922,Juxton Street,Lambeth,Central,51.49409573,-0.11579385,0,0,6,0,0,0,1,21,0,0,58,56,16,19,38,311,4,204,0,1,15,2,105,1,0,26,6,0,0,4,2,6,1,1,0,1,4,7,0,0,6,0,6,1,0,0,0,1,0,0
CENCY198,296,CENCY,Central area cycle surveys,530550,179239,Riverside Walk (Albert Embankment),Lambeth,Central,51.49702535,-0.120715472,3,0,6,0,0,0,1,13,0,0,62,63,13,19,36,281,14,237,0,3,9,3,120,0,0,23,6,0,0,3,2,6,2,1,1,1,4,7,0,0,4,0,4,0,0,0,0,1,0,0
CENCY199,2925,CENCY,Central area cycle surveys,528564,179804,Green Park (cycle lane only),Westminster,Central,51.5025576,-0.149103507,1,5,21,0,0,2,1,14,0,0,131,61,18,16,40,186,23,155,0,3,12,0,84,0,0,13,2,0,2,4,0,110,1,2,1,0,1,0,0,0,0,0,3,2,0,0,0,0,0,0
CENCY200,1104,CENCY,Central area cycle surveys,532298,179840,Marshalsea Road,Southwark,Central,51.50202023,-0.095323844,1,0,15,2,0,1,3,6,0,0,105,68,21,25,58,456,18,186,0,5,10,2,95,0,0,36,6,0,2,7,2,5,0,3,1,4,3,3,0,0,9,0,12,0,0,0,0,0,0,0
CENCY201,3795,CENCY,Central area cycle surveys,533426,180000,Tooley Street (east),Southwark,Central,51.50319315,-0.079021629,1,0,13,1,0,1,4,7,0,0,139,82,40,40,63,316,13,167,0,5,5,3,86,0,0,36,8,0,2,9,1,9,0,1,0,0,1,3,0,0,7,0,9,0,0,0,0,0,0,0
CENCY206,877,CENCY,Central area cycle surveys,531237,182156,Warner Street,Islington,Central,51.52308021,-0.109739746,0,1,51,3,0,4,7,6,0,0,105,99,20,32,53,562,13,224,0,4,9,0,127,2,0,27,5,0,0,2,1,20,2,7,1,0,0,2,0,1,0,0,11,0,0,0,0,0,0,0
CENCY207,1230,CENCY,Central area cycle surveys,530882,182498,Pakenham Street,Camden,Central,51.52623591,-0.114726801,0,0,30,1,0,2,5,8,0,0,125,128,15,44,61,572,18,237,0,7,11,0,129,2,0,39,4,0,0,2,1,27,2,7,1,0,1,3,0,0,0,0,13,0,0,0,0,0,0,0
CENCY208,1719,CENCY,Central area cycle surveys,531846,179170,Princess Street,Southwark,Central,51.49610478,-0.102082279,2,0,4,2,0,0,2,11,0,0,76,62,7,30,48,405,11,194,0,1,10,0,103,0,0,49,10,0,0,3,4,9,2,1,2,5,3,8,0,0,6,0,9,0,0,0,0,1,0,0
CENCY701,1429,CENCY,Central area cycle surveys,529633,180463,Regent Street,Westminster,Central,51.50823588,-0.133468623,4,6,66,1,0,3,4,4,0,0,388,144,79,38,114,403,47,182,0,8,13,1,93,0,0,27,8,1,1,12,0,213,5,2,6,0,6,0,0,0,3,0,9,0,0,1,0,0,0,0
CENCY702,1220,CENCY,Central area cycle surveys,529736,180516,Haymarket,Westminster,Central,51.50868856,-0.131965829,4,6,72,1,0,3,4,2,0,0,385,147,81,38,111,420,43,199,0,7,14,3,102,0,0,29,9,1,1,12,0,205,5,2,6,0,6,0,0,0,3,0,9,0,0,1,0,0,0,0
CSHCY005,341,CSHCY,Cycle Superhighway cycle surveys,533450,188144,Holmdale Terrace,Haringey,Inner,51.5763722,-0.075591228,0,0,0,0,0,0,0,2,0,0,5,6,1,2,11,132,5,73,0,0,1,0,72,0,0,13,3,0,0,4,4,5,0,2,0,0,0,2,0,0,3,0,0,0,0,0,0,0,0,0
CSHCY006,902,CSHCY,Cycle Superhighway cycle surveys,533032,187358,Heathland Road,Hackney,Inner,51.56940767,-0.08191706,0,0,0,0,0,0,0,3,0,0,18,22,3,7,20,261,6,81,0,3,4,0,65,0,0,24,3,0,0,3,3,10,2,2,1,0,0,4,0,0,3,0,1,0,0,0,0,0,0,0
CSHCY007,1054,CSHCY,Cycle Superhighway cycle surveys,533155,186801,Bouverie Road,Hackney,Inner,51.56437329,-0.080354248,0,0,0,0,0,0,0,3,0,0,22,25,6,6,22,363,0,69,0,4,2,0,52,0,0,26,6,0,0,5,2,8,3,3,1,0,1,5,0,0,4,0,4,0,0,0,0,0,0,0
CSHCY008,2300,CSHCY,Cycle Superhighway cycle surveys,533260,185703,Wordworth Road,Hackney,Inner,51.55448154,-0.079256103,0,0,0,0,0,0,0,3,0,0,29,34,16,5,25,565,1,132,0,2,1,0,91,0,0,25,8,0,0,5,5,12,2,2,1,0,1,2,0,0,2,0,5,0,0,0,0,0,0,0
CSHCY009,1428,CSHCY,Cycle Superhighway cycle surveys,533298,184951,Kingsbury Road,Islington,Inner,51.54771485,-0.078993031,0,0,0,0,0,0,1,1,0,0,17,19,14,2,14,487,1,158,0,0,1,0,88,0,0,16,3,0,0,2,3,7,0,0,0,0,1,1,0,0,1,0,2,0,0,0,0,0,0,0
CSHCY010,1998,CSHCY,Cycle Superhighway cycle surveys,533212,184265,De Beauvoir Road,Hackney,Inner,51.54157051,-0.080492014,0,1,0,0,0,2,1,1,0,0,15,19,7,3,10,386,1,155,0,0,0,0,85,0,0,14,5,0,0,1,2,4,0,0,0,0,1,1,0,0,4,0,1,0,0,0,0,0,0,0
CSHCY011,5572,CSHCY,Cycle Superhighway cycle surveys,533034,182713,Pitfield Street,Hackney,Inner,51.5276656,-0.083643073,2,1,43,2,1,4,5,1,2,0,108,74,35,20,47,571,3,181,0,5,6,0,105,0,0,37,13,0,2,4,2,11,0,4,2,0,5,2,0,0,4,0,10,0,0,0,0,0,0,0
CSHCY013,4196,CSHCY,Cycle Superhighway cycle surveys,536993,182730,Bow Road,Tower Hamlets,Inner,51.52687268,-0.026601435,2,0,1,0,0,0,2,3,0,0,6,19,1,3,16,125,2,143,0,2,2,0,71,0,0,20,2,0,0,3,1,3,0,2,1,0,0,3,0,1,0,0,0,0,0,0,0,0,0,0
CSHCY014,5987,CSHCY,Cycle Superhighway cycle surveys,535989,182230,Mile End Road (east),Tower Hamlets,Inner,51.52262205,-0.04125807,0,0,0,0,0,0,2,5,1,0,16,13,0,4,13,140,2,139,0,1,1,0,69,1,0,27,0,0,0,1,2,3,0,0,0,0,1,1,0,0,1,0,2,0,0,0,0,0,0,0
CSHCY015,5855,CSHCY,Cycle Superhighway cycle surveys,535218,181982,Mile End Road (west),Tower Hamlets,Inner,51.5205784,-0.052459362,1,1,1,0,0,0,3,4,1,0,28,34,5,13,35,180,7,153,0,0,1,0,77,1,0,33,1,0,0,3,3,11,1,0,0,0,2,4,0,0,2,0,2,0,0,0,0,0,0,0
CSHCY016,6962,CSHCY,Cycle Superhighway cycle surveys,534677,181793,Whitechapel Road East,Tower Hamlets,Inner,51.51900913,-0.060324291,1,1,8,0,0,0,4,9,1,0,49,54,4,20,30,229,9,135,0,1,1,0,68,1,0,34,4,0,0,4,1,22,0,0,1,0,1,2,0,0,1,0,2,0,0,0,0,0,0,0
CSHCY017,6902,CSHCY,Cycle Superhighway cycle surveys,533928,181376,Whitechapel High Street,Tower Hamlets,Inner,51.51543975,-0.071271171,2,0,23,1,2,4,9,13,1,0,168,129,52,48,105,312,17,193,0,5,7,0,99,0,0,32,5,0,1,3,0,35,0,1,2,0,11,2,0,0,2,0,22,0,0,0,0,0,0,0
CSHCY018,3150,CSHCY,Cycle Superhighway cycle surveys,538365,183622,Stratford High Street,Newham,Inner,51.53455397,-0.006486347,5,0,2,0,0,1,3,3,0,0,40,26,3,2,21,151,3,96,0,4,5,0,48,0,0,9,5,0,1,3,2,23,0,2,3,0,0,3,0,0,5,0,8,0,0,0,0,0,0,0
CSHCY024,797,CSHCY,Cycle Superhighway cycle surveys,539005,181297,Barking Road,Tower Hamlets,Inner,51.5135046,0.001818424,0,0,1,0,0,3,1,2,0,0,21,25,6,1,30,105,5,148,0,0,1,1,75,0,0,26,7,0,0,2,1,3,0,1,2,0,2,1,0,0,3,0,10,0,1,0,0,0,0,0
CSHCY025,881,CSHCY,Cycle Superhighway cycle surveys,538604,180826,Naval Row,Tower Hamlets,Inner,51.50937063,-0.004141639,0,0,1,1,0,3,1,0,0,0,36,25,6,3,34,135,2,121,0,0,1,1,62,0,0,21,4,0,0,3,2,2,0,1,0,0,0,1,0,0,2,0,11,1,0,0,0,0,0,0
CSHCY026,1294,CSHCY,Cycle Superhighway cycle surveys,537740,180755,Poplar High Street,Tower Hamlets,Inner,51.5089437,-0.016611336,2,0,8,2,1,3,4,12,0,0,67,45,13,7,85,214,8,175,0,6,1,1,89,0,0,32,6,0,1,5,2,21,1,1,2,0,1,3,0,0,4,0,9,1,0,0,0,0,0,0
CSHCY027,1626,CSHCY,Cycle Superhighway cycle surveys,537334,180766,Ming Street,Tower Hamlets,Inner,51.50914128,-0.022453608,1,0,3,1,1,1,4,13,0,0,58,39,12,7,80,196,8,148,0,6,2,2,76,0,0,28,7,0,1,4,2,21,1,1,2,0,1,3,0,0,5,0,5,1,0,0,0,0,0,0
CSHCY028,4760,CSHCY,Cycle Superhighway cycle surveys,536280,180807,Narrow Street,Tower Hamlets,Inner,51.50976466,-0.037615961,0,0,3,0,0,0,0,8,1,0,11,7,1,2,12,77,10,120,0,0,4,2,60,1,0,19,1,0,0,0,1,1,0,0,0,0,1,4,0,0,2,0,1,0,0,0,0,0,0,0
CSHCY029,5157,CSHCY,Cycle Superhighway cycle surveys,535265,180902,Cable Street (east),Tower Hamlets,Inner,51.51086202,-0.052196439,0,1,0,0,0,0,2,10,0,0,13,18,1,5,12,106,6,128,0,1,2,0,64,1,0,20,0,0,0,2,1,6,0,0,0,0,3,6,0,0,0,0,0,0,0,0,0,0,0,0
CSHCY030,4162,CSHCY,Cycle Superhighway cycle surveys,534385,180905,Cable Street (west),Tower Hamlets,Inner,51.51109877,-0.064868471,1,1,8,0,0,0,6,20,1,0,82,68,18,24,41,210,10,164,0,3,4,1,81,0,0,37,3,0,0,4,1,12,0,0,2,0,5,6,0,0,0,0,9,0,0,0,0,0,0,0
CSHCY031,5822,CSHCY,Cycle Superhighway cycle surveys,533967,180817,Royal Mint Street,Tower Hamlets,Inner,51.51040714,-0.070921692,2,0,18,1,0,2,8,15,1,0,153,101,43,40,81,221,9,159,0,3,5,2,80,0,0,27,3,0,2,3,0,23,0,0,2,0,8,3,0,0,0,0,16,0,0,0,0,0,0,0
CSHCY038,2373,CSHCY,Cycle Superhighway cycle surveys,537780,177684,Creek Road,Greenwich,Inner,51.48133771,-0.017233246,0,0,2,0,0,0,4,11,0,0,37,41,8,15,15,123,2,107,0,2,1,2,54,7,0,19,2,0,0,4,1,10,0,2,0,0,0,1,0,0,2,0,6,0,0,0,0,0,0,0
CSHCY039,2465,CSHCY,Cycle Superhighway cycle surveys,537041,177731,Evelyn Street South,Lewisham,Inner,51.48193942,-0.027850506,0,0,3,0,0,0,2,4,0,0,19,29,7,12,11,134,0,97,0,1,2,1,54,0,0,17,2,0,0,1,3,2,0,1,0,0,0,2,0,0,3,0,7,0,0,0,0,0,0,0
CSHCY040,2112,CSHCY,Cycle Superhighway cycle surveys,536087,178542,Evelyn Street North,Lewisham,Inner,51.48945738,-0.0412682,0,0,2,0,0,0,0,5,0,0,8,6,1,3,4,81,2,96,0,0,0,1,54,0,0,8,0,0,0,0,0,4,0,0,0,0,1,3,0,0,1,0,3,0,0,0,0,0,0,0
CSHCY041,3168,CSHCY,Cycle Superhighway cycle surveys,535366,179203,Lower Road,Southwark,Inner,51.49557021,-0.051393338,0,0,3,0,0,0,0,6,0,0,11,15,4,7,11,121,6,122,0,1,3,0,63,0,0,13,2,0,0,2,0,4,0,0,0,0,1,0,0,1,4,0,5,0,0,0,0,0,0,0
CSHCY042,5476,CSHCY,Cycle Superhighway cycle surveys,534441,179458,Jamaica Road,Southwark,Inner,51.49808225,-0.064613045,0,0,2,0,0,0,1,12,0,0,21,22,9,16,11,176,1,134,0,2,2,0,67,0,0,19,6,0,0,4,2,0,0,0,0,0,0,4,0,1,3,0,2,0,0,0,0,0,0,0
CSHCY043,6663,CSHCY,Cycle Superhighway cycle surveys,533828,179685,Jamaica Road (west),Southwark,Inner,51.50026748,-0.073352616,0,0,5,0,0,0,1,11,0,0,80,39,19,21,33,235,1,138,0,1,3,2,68,0,0,29,8,0,1,6,1,3,0,0,0,0,0,3,0,0,1,0,5,0,0,0,0,0,0,0
CSHCY047,2399,CSHCY,Cycle Superhighway cycle surveys,535659,176810,Queen's Road (east),Lewisham,Inner,51.47399592,-0.048093719,0,0,1,0,0,0,0,4,0,0,12,16,3,5,12,96,0,85,0,0,5,0,65,0,0,13,0,0,0,0,2,2,1,0,0,0,1,1,0,0,5,0,1,0,0,0,1,0,0,0
CSHCY048,2107,CSHCY,Cycle Superhighway cycle surveys,534926,176740,Queens Road,Southwark,Inner,51.47354199,-0.058668057,0,2,5,0,0,0,4,4,0,0,15,10,2,7,12,135,0,88,1,1,2,0,65,0,0,12,3,1,0,1,0,4,1,0,0,0,0,7,0,0,3,0,1,0,0,1,0,0,0,0
CSHCY049,3661,CSHCY,Cycle Superhighway cycle surveys,534102,176695,Peckham High Street,Southwark,Inner,51.47333333,-0.070542175,0,3,0,0,0,0,1,1,0,0,17,12,2,5,12,183,0,70,1,1,2,0,57,0,0,9,3,1,0,0,0,3,1,0,0,0,0,13,0,0,1,0,2,0,0,1,0,0,0,0
CSHCY050,4733,CSHCY,Cycle Superhighway cycle surveys,532778,176716,Camberwell Church Street,Southwark,Inner,51.47383403,-0.089586272,0,1,5,0,0,1,4,4,0,0,8,12,2,7,14,203,0,82,0,2,3,0,58,0,0,19,2,0,0,4,0,1,1,0,0,0,0,9,0,0,0,0,2,0,0,0,0,0,0,0
CSHCY051,4961,CSHCY,Cycle Superhighway cycle surveys,531865,177149,Camberwell New Road,Southwark,Inner,51.47793854,-0.102562864,1,0,3,0,0,1,6,8,0,0,30,25,6,11,16,232,1,130,0,2,4,0,85,0,0,30,3,0,0,5,0,3,2,1,2,1,0,3,0,0,3,0,1,1,0,0,0,0,0,0
CSHCY052,5503,CSHCY,Cycle Superhighway cycle surveys,530802,177835,Harleyford Road (Kennington Oval),Lambeth,Inner,51.48434994,-0.117607097,0,0,6,0,0,0,4,20,0,0,37,32,11,10,16,293,6,157,0,1,17,2,84,1,0,27,2,0,0,2,0,0,1,1,2,1,3,3,0,0,5,0,6,2,0,0,0,1,0,0
CSHCY053,3540,CSHCY,Cycle Superhighway cycle surveys,530462,177929,South Lambeth Road (at Vauxhall),Lambeth,Inner,51.48527314,-0.122466182,0,0,5,0,0,0,2,21,0,0,40,30,13,10,17,273,9,165,0,1,18,2,88,1,0,25,3,0,0,3,0,1,1,1,2,0,6,2,0,0,4,0,7,2,0,0,0,1,0,0
CSHCY055,5159,CSHCY,Cycle Superhighway cycle surveys,530113,178195,Vauxhall Bridge,Westminster,Inner,51.48774392,-0.127391686,0,0,4,0,0,0,1,12,0,0,35,29,14,9,16,283,8,160,0,1,21,2,86,1,0,24,4,0,0,3,0,3,1,2,0,0,6,2,0,0,3,0,6,3,0,0,0,0,0,0
CSHCY056,996,CSHCY,Cycle Superhighway cycle surveys,529396,178437,Belgrave Road,Westminster,Inner,51.49008307,-0.137624039,5,0,15,0,1,1,0,11,0,0,77,62,12,20,54,285,11,205,3,3,8,3,116,0,0,35,4,0,1,5,1,8,3,1,1,0,5,0,0,0,1,0,6,2,0,0,0,0,0,0
CSHCY057,412,CSHCY,Cycle Superhighway cycle surveys,536436,177129,Fordham Park,Lewisham,Inner,51.47667585,-0.036789981,0,0,2,0,0,0,0,4,0,0,17,28,8,11,15,97,0,97,0,1,5,0,65,0,0,13,0,0,0,0,3,2,0,0,0,0,1,0,0,0,2,0,3,0,0,0,1,0,0,0
CSHCY058,160,CSHCY,Cycle Superhighway cycle surveys,536753,177471,Amersham Vale,Lewisham,Inner,51.47967266,-0.032095969,0,0,3,0,0,0,1,4,0,0,17,29,9,12,14,124,0,93,0,1,5,0,58,0,0,15,1,0,0,1,3,2,0,0,0,0,1,1,0,0,3,0,5,0,0,0,1,0,0,0
CSHCY059,741,CSHCY,Cycle Superhighway cycle surveys,537004,177244,Margaret Macmillan Park,Lewisham,Inner,51.47757211,-0.028571736,0,0,3,0,0,0,1,4,0,0,24,34,10,13,16,137,0,99,0,1,5,0,61,7,0,19,1,0,0,1,3,2,0,1,0,0,1,2,0,0,3,0,7,0,0,0,1,0,0,0
CSHCY060,155,CSHCY,Cycle Superhighway cycle surveys,537250,176552,Albyn Road,Lewisham,Inner,51.47129412,-0.025300238,0,0,0,0,0,0,0,1,0,0,23,29,8,17,15,134,0,102,0,0,4,0,75,14,0,13,2,0,0,0,3,3,0,1,0,0,1,1,0,0,2,0,8,0,0,0,1,0,0,0
CSHCY061,1274,CSHCY,Cycle Superhighway cycle surveys,537837,176015,Thurston Road,Lewisham,Inner,51.46632601,-0.017063429,0,0,0,0,0,0,2,3,0,0,15,13,1,7,18,96,0,119,0,2,0,0,86,14,0,11,3,0,0,1,1,3,2,1,1,0,0,2,0,0,0,0,5,0,0,0,0,0,0,0
CSHCY062,1169,CSHCY,Cycle Superhighway cycle surveys,528504,179074,Eccleston Street,Westminster,Inner,51.49601089,-0.150233111,6,0,14,0,0,1,0,21,0,0,93,63,12,15,37,252,19,204,3,2,14,0,116,0,0,20,1,0,3,6,1,104,0,2,0,0,1,0,0,0,1,0,6,0,0,0,0,0,0,0
CSHCY063,2647,CSHCY,Cycle Superhighway cycle surveys,527095,170910,High Street Colliers Wood,Merton,Inner,51.42295968,-0.173450686,0,0,0,1,0,0,6,8,2,0,78,23,9,10,16,92,3,74,0,0,3,0,56,0,0,30,3,0,3,3,4,13,2,0,2,0,1,0,0,0,2,0,6,1,1,0,0,0,0,0
CSHCY064,2445,CSHCY,Cycle Superhighway cycle surveys,527802,172131,Upper Tooting Road,Wandsworth,Inner,51.43377392,-0.162847813,0,0,1,0,0,0,7,11,0,0,83,26,9,5,19,87,6,64,0,1,0,0,52,0,0,21,5,0,2,6,5,15,3,0,1,0,1,0,0,0,0,0,3,0,0,0,0,0,1,0
CSHCY065,3714,CSHCY,Cycle Superhighway cycle surveys,528353,172998,Balham High Road (south),Wandsworth,Inner,51.44144112,-0.15461161,0,0,1,0,0,0,6,12,0,0,49,19,6,7,13,92,9,40,0,0,0,0,40,0,0,13,3,0,1,4,0,0,2,1,0,0,2,0,0,0,0,0,2,0,0,0,0,0,0,0
CSHCY066,4403,CSHCY,Cycle Superhighway cycle surveys,528789,173892,Balham Hill,Wandsworth,Inner,51.44937649,-0.148016812,0,0,0,0,0,0,1,9,0,0,35,19,6,8,16,93,8,47,0,1,0,0,47,0,0,9,4,0,1,1,1,0,0,1,0,0,3,0,0,0,0,0,1,0,0,0,1,0,0,0
CSHCY067,2993,CSHCY,Cycle Superhighway cycle surveys,529150,174890,Clapham Common (south side),Lambeth,Inner,51.45826318,-0.142460641,0,0,0,0,0,0,2,10,0,0,53,29,10,18,28,162,6,69,0,1,0,0,61,0,0,16,2,0,0,0,2,2,0,1,0,0,3,0,0,1,1,0,2,0,0,0,1,0,0,0
CSHCY068,3792,CSHCY,Cycle Superhighway cycle surveys,529951,175624,Clapham High Street,Lambeth,Inner,51.46467631,-0.13066845,0,1,0,0,0,0,4,14,0,0,50,42,15,27,37,293,4,85,0,2,2,0,62,0,0,31,2,0,0,1,1,5,3,1,0,0,2,0,0,1,3,0,3,0,0,0,0,0,0,0
CSHCY069,7476,CSHCY,Cycle Superhighway cycle surveys,530224,176111,Clapham Road Stockwell,Lambeth,Inner,51.46899014,-0.126561457,0,1,1,0,0,0,5,7,0,0,32,35,13,19,37,257,2,105,0,2,2,0,66,0,0,34,2,0,0,2,2,4,4,0,2,1,1,0,0,1,3,0,4,0,0,0,0,0,0,0
CSHCY070,7604,CSHCY,Cycle Superhighway cycle surveys,530878,177098,Clapham Road Oval,Lambeth,Inner,51.47770922,-0.11678605,0,0,3,0,0,0,3,8,0,0,28,30,5,11,20,262,3,150,0,0,12,0,87,0,0,30,3,0,0,2,2,1,2,0,2,1,1,1,0,0,4,0,3,2,0,0,0,0,0,0
CSHCY071,12825,CSHCY,Cycle Superhighway cycle surveys,531259,177740,Kennington Park Road,Lambeth,Inner,51.48339043,-0.111064592,0,0,6,0,0,0,4,16,0,0,35,29,11,14,18,290,5,157,0,0,17,0,90,1,0,30,2,0,0,2,0,0,1,0,2,1,2,1,0,0,6,0,3,2,0,0,0,0,0,0
CSHCY072,7514,CSHCY,Cycle Superhighway cycle surveys,531837,178703,Newington Butts,Southwark,Inner,51.49191017,-0.102386144,2,0,3,0,0,0,3,15,0,0,48,29,3,25,41,323,5,176,0,1,11,0,101,0,0,34,5,0,1,3,1,8,4,2,1,4,1,6,0,0,5,0,7,0,0,0,0,1,0,0
CSHCY078,2399,CSHCY,Cycle Superhighway cycle surveys,526015,175129,Old York Road,Wandsworth,Inner,51.46111697,-0.187474833,0,0,1,0,0,0,1,6,0,0,18,14,2,3,12,166,0,85,0,1,1,2,71,0,0,16,2,0,1,1,1,8,0,6,1,0,9,0,0,0,0,0,8,0,0,0,1,0,0,0
CSHCY079,2289,CSHCY,Cycle Superhighway cycle surveys,526577,175711,York Road,Wandsworth,Inner,51.46622212,-0.17918136,0,0,2,0,0,0,3,5,0,0,23,39,3,8,26,164,3,97,0,3,2,2,84,0,0,25,2,0,2,2,2,6,1,11,1,0,12,1,0,0,0,0,1,0,0,0,0,0,1,0
CSHCY080,1789,CSHCY,Cycle Superhighway cycle surveys,527487,176384,Battersea Park Road (Latchmere),Wandsworth,Inner,51.47206623,-0.165845605,0,0,1,0,0,0,2,21,0,0,39,42,10,9,26,112,2,68,0,3,2,1,58,0,0,27,3,0,0,2,2,7,1,5,1,0,5,0,0,0,0,0,0,0,0,0,0,0,1,0
CSHCY081,1469,CSHCY,Cycle Superhighway cycle surveys,528263,176685,Battersea Park Road (Battersea),Wandsworth,Inner,51.47459606,-0.154569882,0,0,0,0,1,0,2,8,0,0,32,22,3,9,15,75,0,49,0,1,1,0,49,0,0,19,3,0,0,0,1,4,0,4,1,0,1,0,0,0,0,0,0,0,0,0,0,0,0,0
CSHCY082,6518,CSHCY,Cycle Superhighway cycle surveys,528551,177888,Chelsea Bridge,Westminster,Inner,51.48534188,-0.149987947,5,0,6,0,1,0,0,10,0,0,34,23,3,11,14,178,1,112,3,3,10,1,75,0,0,17,5,0,0,2,1,34,1,2,0,0,2,0,0,0,1,0,3,1,0,0,0,0,0,0
CSHCY083,8385,CSHCY,Cycle Superhighway cycle surveys,529413,177894,Grosvenor Road,Westminster,Inner,51.48519939,-0.137578173,0,0,1,0,1,0,1,7,0,0,31,12,2,11,9,209,9,109,0,4,6,2,66,0,0,23,7,0,0,3,1,6,2,1,0,0,4,2,0,0,0,0,6,2,0,0,0,0,0,0
CSHCY088,435,CSHCY,Cycle Superhighway cycle surveys,525764,185300,Finchley Road (West Hampstead),Camden,Inner,51.55257911,-0.187462186,0,0,0,0,0,0,0,5,0,0,23,17,0,5,9,78,4,60,0,0,2,0,60,0,0,7,7,0,1,2,0,1,1,2,0,0,1,4,0,0,0,0,5,0,0,0,0,0,0,0
CSHCY089,1034,CSHCY,Cycle Superhighway cycle surveys,526349,184641,Finchley Road station,Camden,Inner,51.5465262,-0.179265591,0,0,1,0,0,0,0,9,0,0,30,18,1,2,9,90,6,69,0,0,5,0,69,0,0,16,7,0,1,1,0,2,1,5,1,0,2,0,0,1,0,0,6,0,0,0,0,0,0,0
CSHCY090,853,CSHCY,Cycle Superhighway cycle surveys,526729,184207,Swiss Cottage,Camden,Inner,51.54254079,-0.173944604,0,0,1,0,0,0,0,17,0,0,32,17,1,4,9,94,6,62,0,0,14,0,62,0,0,18,5,0,0,1,0,3,1,5,1,0,2,0,0,1,0,0,5,0,0,0,0,0,0,0
CSHCY091,613,CSHCY,Cycle Superhighway cycle surveys,526929,183873,Avenue Road,Camden,Inner,51.53949429,-0.171182493,0,0,1,0,0,0,0,21,0,0,31,23,1,4,6,113,5,59,0,0,19,0,59,0,0,17,4,0,0,0,1,23,1,4,1,0,1,1,0,1,0,0,6,0,0,0,0,0,0,0
CSHCY092,3434,CSHCY,Cycle Superhighway cycle surveys,527588,182585,Outer Circle (west),Westminster,Inner,51.52777088,-0.162151771,4,0,2,2,0,0,2,36,0,0,51,43,0,9,32,159,6,78,0,0,39,0,54,0,0,26,3,1,0,3,5,28,5,0,1,1,1,4,0,0,1,0,4,0,0,0,0,0,0,0
CSHCY093,1060,CSHCY,Cycle Superhighway cycle surveys,528563,182215,Park Square West,Westminster,Inner,51.52422487,-0.148239458,4,0,19,2,0,3,3,30,0,0,106,60,12,13,43,351,11,122,0,2,17,0,64,0,0,17,5,0,0,8,1,80,4,16,0,1,1,3,0,0,0,0,12,0,0,0,0,0,0,0
CSHCY094,2776,CSHCY,Cycle Superhighway cycle surveys,528755,182256,Park Square East,Camden,Inner,51.52454963,-0.145458489,3,1,17,2,0,3,3,23,0,0,111,71,17,14,55,391,17,122,0,3,14,0,61,0,0,18,6,0,0,6,1,84,3,16,0,1,1,4,0,0,0,0,11,0,0,0,0,0,0,0
CSHCY096,5228,CSHCY,Cycle Superhighway cycle surveys,528376,182227,Outer Circle (south),Westminster,Inner,51.52437521,-0.150929064,4,0,15,1,0,2,4,37,0,0,93,55,10,14,40,299,10,112,0,1,27,0,60,0,0,16,5,0,0,8,1,78,4,15,0,1,1,3,0,0,0,0,9,0,0,0,0,0,0,0
CSHCY097,5336,CSHCY,Cycle Superhighway cycle surveys,527983,182176,Cornwall Terrace,Westminster,Inner,51.524006,-0.156609277,4,0,6,2,0,0,3,48,0,0,91,46,4,10,38,225,9,104,0,1,37,0,60,0,0,16,2,0,1,8,3,77,5,6,2,1,0,1,0,0,1,0,6,0,0,0,0,0,0,0
CSHCY098,633,CSHCY,Cycle Superhighway cycle surveys,521446,180893,Western Avenue (Savoy Circus),Ealing,Inner,51.51391754,-0.251228695,0,0,0,0,0,0,0,1,0,0,10,3,0,0,4,58,0,62,0,0,0,0,60,0,0,8,3,0,0,1,1,0,0,0,0,0,0,0,0,0,0,0,1,0,0,0,1,0,0,0
CSHCY099,376,CSHCY,Cycle Superhighway cycle surveys,522148,180960,Westway (White City),Hammersmith & Fulham,Inner,51.5143685,-0.241094059,0,0,1,0,0,0,1,2,0,0,9,13,1,2,12,130,0,59,0,0,0,0,58,0,0,11,3,0,0,2,0,1,0,0,0,0,0,1,0,0,0,0,0,0,0,0,1,0,0,0
CSHCY100,4,CSHCY,Cycle Superhighway cycle surveys,525949,181515,Westway (raised section),Westminster,Inner,51.51852248,-0.186148049,0,0,7,1,0,0,4,38,2,0,121,73,12,8,43,259,8,112,0,2,12,0,77,0,0,45,9,2,0,5,1,24,2,4,1,0,2,2,0,0,3,0,9,0,0,1,0,0,0,0
CSHCY101,659,CSHCY,Cycle Superhighway cycle surveys,526366,181271,Westbourne Terrace,Westminster,Inner,51.51623663,-0.180228677,0,0,6,2,0,0,5,39,2,0,133,71,9,9,39,245,11,124,0,3,21,0,76,0,0,49,8,2,1,5,2,7,3,2,2,0,2,2,0,0,3,0,8,0,0,1,1,0,0,0
CSHCY102,1597,CSHCY,Cycle Superhighway cycle surveys,526820,180796,Bayswater Road (Lancaster Gate),Westminster,Inner,51.51186623,-0.173860004,1,0,3,2,0,0,4,33,1,0,98,57,8,7,32,185,8,97,0,3,11,0,56,0,0,29,5,1,1,6,0,10,3,1,0,0,1,1,0,0,1,0,4,2,0,0,1,0,0,0
CSHCY103,4291,CSHCY,Cycle Superhighway cycle surveys,526920,180696,West Carriage Drive (south of Victoria Gate),Westminster,Inner,51.51094511,-0.172455712,1,0,2,2,0,0,3,31,0,0,65,48,4,6,22,164,8,82,0,3,10,0,47,0,0,25,4,0,1,6,0,10,3,1,0,0,0,0,0,0,2,0,1,3,0,0,1,0,0,0
CSHCY104,6773,CSHCY,Cycle Superhighway cycle surveys,528285,179958,Serpentine Road,Westminster,Inner,51.5040049,-0.153065001,2,0,27,0,0,1,1,13,0,0,101,33,15,6,17,140,18,122,0,1,13,0,63,0,0,11,1,0,1,1,0,74,1,2,1,0,0,0,0,0,0,0,1,2,0,0,0,0,0,0
CSHCY105,4408,CSHCY,Cycle Superhighway cycle surveys,527381,180844,The Ring (North Carriage Drive),Westminster,Inner,51.51217152,-0.165762863,1,0,12,3,0,0,4,47,0,0,93,51,6,9,24,194,11,125,0,2,21,0,64,0,0,23,5,0,1,7,1,21,5,6,2,0,0,0,0,0,2,0,5,3,0,0,1,0,0,0
CSHCY106,4371,CSHCY,Cycle Superhighway cycle surveys,526897,180121,West Carriage Drive,Westminster,Inner,51.50578282,-0.172993689,1,0,1,0,0,0,1,13,0,0,37,28,2,5,5,105,6,60,0,1,6,0,44,0,0,16,0,0,0,2,0,22,0,1,0,0,0,0,0,0,0,0,1,2,0,0,1,0,0,0
CSHCY107,1938,CSHCY,Cycle Superhighway cycle surveys,527827,179798,South Carriage Drive,Westminster,Inner,51.50267068,-0.159718116,1,0,6,0,0,0,0,13,0,0,76,32,4,4,6,125,12,88,0,0,10,0,46,0,0,8,0,0,1,2,1,76,1,1,0,0,0,0,0,0,0,0,2,3,0,0,0,0,0,0
CSHCY108,6601,CSHCY,Cycle Superhighway cycle surveys,528381,179809,Aspley Way (at Hyde Park Corner),Westminster,Inner,51.50264409,-0.151736789,1,0,15,0,0,1,1,15,0,0,115,50,17,12,30,161,23,142,0,2,12,0,76,0,0,11,2,0,2,3,0,78,1,2,0,0,0,0,0,0,0,0,3,2,0,0,0,0,0,0
CSHCY128,1493,CSHCY,Cycle Superhighway cycle surveys,530506,182825,Grays Inn Road,Camden,Inner,51.52926146,-0.120022661,0,0,14,0,1,1,4,6,0,0,109,128,19,37,54,477,20,210,0,6,12,0,116,2,0,39,4,0,1,4,3,52,1,3,1,1,1,1,0,0,0,0,8,0,0,0,0,0,0,0
CSHCY129,1381,CSHCY,Cycle Superhighway cycle surveys,530328,183265,York Way,Camden,Inner,51.53325663,-0.122424536,0,0,10,0,1,0,3,5,0,0,73,93,15,25,46,333,18,153,0,4,7,0,88,2,0,33,2,0,1,3,2,40,1,1,1,1,0,1,0,0,0,0,4,0,0,0,0,0,0,0
INNCY001,1409,INNCY,Inner area cycle surveys,536005,183225,Grove Road,Tower Hamlets,Inner,51.53155943,-0.040643763,1,0,0,0,0,0,1,7,0,0,10,24,1,5,10,168,1,115,0,1,1,0,57,0,0,21,1,0,0,1,1,2,0,1,1,0,1,0,0,1,2,0,3,0,0,0,0,0,0,0
INNCY002,2062,INNCY,Inner area cycle surveys,535642,186677,Lea Bridge Road,Waltham Forest,Inner,51.56266688,-0.044544143,0,0,0,0,0,0,0,0,1,0,1,6,1,0,1,100,0,54,0,0,0,0,46,0,0,5,0,0,0,0,0,1,2,0,0,0,0,0,0,0,1,0,0,0,0,0,0,0,0,0
INNCY003,1209,INNCY,Inner area cycle surveys,536945,181263,Burdett Road (south of Limehouse Cut),Tower Hamlets,Inner,51.5137017,-0.027862524,1,0,3,0,0,0,0,10,1,0,12,18,2,2,20,150,10,135,0,0,4,1,68,0,0,25,1,0,0,0,4,2,0,1,0,0,1,3,0,0,4,0,2,1,0,0,0,0,0,0
INNCY004,2984,INNCY,Inner area cycle surveys,531355,186695,Seven Sisters Road (Finsbury Park),Islington,Inner,51.56384246,-0.106347233,0,0,1,0,0,1,1,8,1,0,52,50,4,9,47,275,3,97,0,4,1,0,52,0,0,35,3,0,0,5,9,20,6,7,2,0,1,5,0,0,0,0,2,0,0,0,0,0,1,0
INNCY005,1202,INNCY,Inner area cycle surveys,532770,188001,Seven Sisters Road,Haringey,Inner,51.57524758,-0.085452331,0,0,0,0,0,0,2,5,0,0,10,11,1,5,15,138,7,89,0,1,2,0,73,0,0,16,1,0,0,4,3,8,0,2,0,0,0,3,0,0,1,0,2,0,0,0,0,0,0,0
INNCY006,872,INNCY,Inner area cycle surveys,530080,187472,Hornsey Rise,Islington,Inner,51.57112025,-0.124443554,0,0,1,0,0,0,3,7,1,0,25,17,0,8,20,176,6,123,0,3,0,0,68,0,0,22,6,0,0,3,1,4,2,2,2,0,0,3,0,0,0,0,4,0,0,0,0,0,0,0
INNCY007,872,INNCY,Inner area cycle surveys,530305,183747,York Way,Islington,Inner,51.53759346,-0.122577717,0,0,8,0,1,0,2,3,0,0,60,71,14,18,35,259,14,117,0,4,4,0,72,1,0,27,3,0,1,3,2,40,1,2,1,0,0,1,0,0,0,0,3,0,0,0,0,0,0,0
INNCY008,1440,INNCY,Inner area cycle surveys,535195,184188,Well Street,Hackney,Inner,51.5404075,-0.051944584,3,0,13,0,0,1,0,0,0,0,25,25,8,0,7,443,0,150,0,0,1,0,82,0,0,10,1,0,1,8,2,5,1,0,0,0,2,0,0,0,3,0,8,0,0,0,0,0,0,0
INNCY009,2077,INNCY,Inner area cycle surveys,534598,183233,Hackney Road,Tower Hamlets,Inner,51.53196818,-0.060912507,1,0,13,0,0,1,0,1,0,0,32,41,10,5,18,352,4,118,0,0,0,0,67,0,0,30,2,0,0,8,3,10,1,1,0,0,2,1,0,0,5,0,3,0,0,0,0,0,0,0
INNCY010,4865,INNCY,Inner area cycle surveys,533698,180337,Tower Bridge,Tower Hamlets,Inner,51.50615734,-0.074977463,2,0,18,1,0,1,5,11,1,0,143,88,51,49,70,243,15,162,0,4,5,3,82,0,0,26,8,0,4,9,1,19,0,0,0,0,4,3,0,0,1,0,12,0,0,0,0,0,0,0
INNCY011,1377,INNCY,Inner area cycle surveys,537205,179057,Westferry Road,Tower Hamlets,Inner,51.49381532,-0.024975368,1,1,2,1,0,0,1,19,0,0,16,14,1,1,31,96,0,99,0,0,1,2,50,0,0,14,3,0,0,1,1,0,0,0,0,0,1,2,0,0,2,0,7,0,0,0,0,0,0,0
INNCY012,882,INNCY,Inner area cycle surveys,531403,174615,Dulwich Road,Lambeth,Inner,51.45527386,-0.110152798,0,0,3,0,0,0,0,1,0,0,24,16,5,5,18,220,2,134,0,0,0,0,79,0,0,10,2,0,0,4,2,5,1,0,1,0,1,1,0,0,0,0,2,3,0,0,0,0,0,0
INNCY013,2099,INNCY,Inner area cycle surveys,535247,177293,Old Kent Road (New Cross Gate),Lewisham,Inner,51.47843485,-0.053837512,0,0,5,0,0,0,3,3,0,0,3,5,0,4,4,88,0,66,0,0,2,0,50,0,0,9,0,0,0,0,0,2,2,0,0,0,0,7,0,0,3,0,0,0,0,0,0,0,0,0
INNCY015,1481,INNCY,Inner area cycle surveys,530230,172490,Streatham High Road,Lambeth,Inner,51.43644782,-0.127806889,0,0,0,0,0,0,1,0,0,0,7,6,2,5,4,101,0,76,0,0,0,0,69,0,0,9,4,0,1,1,0,0,0,0,0,0,0,1,0,0,0,0,1,0,0,0,0,0,0,0
INNCY016,2094,INNCY,Inner area cycle surveys,530770,174614,Brixton Hill,Lambeth,Inner,51.4554113,-0.119258428,0,0,2,0,0,0,1,6,0,0,32,26,7,5,28,297,2,103,0,2,1,0,68,0,0,23,3,0,0,2,3,4,1,1,0,0,1,1,0,0,0,0,2,1,0,0,0,0,0,0
INNCY017,2851,INNCY,Inner area cycle surveys,531193,176322,Brixton Road,Lambeth,Inner,51.47066271,-0.112540657,0,0,2,0,0,0,3,1,0,0,32,25,7,8,31,239,2,126,0,0,2,0,77,0,0,33,3,0,0,2,3,3,5,1,2,1,0,2,0,0,3,0,4,1,0,0,0,0,0,0
INNCY018,1841,INNCY,Inner area cycle surveys,530831,175941,Stockwell Road,Lambeth,Inner,51.46732253,-0.117890429,0,0,2,0,0,0,4,6,0,0,35,28,11,13,34,269,4,141,0,1,1,0,87,0,0,28,2,0,0,3,2,5,5,0,2,1,0,0,0,0,4,0,4,0,0,0,0,0,0,0
INNCY019,2518,INNCY,Inner area cycle surveys,530435,176986,South Lambeth Road,Lambeth,Inner,51.47680494,-0.123202752,0,0,2,0,0,0,1,10,0,0,25,34,4,13,20,262,4,131,0,1,12,0,73,0,0,31,3,0,0,2,2,3,3,0,3,1,1,1,0,0,4,0,6,0,0,0,0,0,0,0
INNCY020,2626,INNCY,Inner area cycle surveys,534437,175953,Peckham Rye,Southwark,Inner,51.46658601,-0.066003676,0,2,0,0,0,0,1,2,0,0,17,10,2,6,10,182,0,84,1,1,1,0,71,0,0,8,3,1,0,1,0,3,1,0,0,0,0,2,0,0,0,0,1,0,0,1,0,0,0,0
INNCY021,668,INNCY,Inner area cycle surveys,531450,178461,Kennigton Lane,Lambeth,Inner,51.48982544,-0.108047332,1,0,5,0,0,0,3,19,0,0,46,32,4,25,38,330,6,186,0,1,15,0,104,1,0,29,5,0,1,4,0,8,4,1,1,1,1,6,0,0,5,0,7,2,0,0,0,1,0,0
INNCY022,3954,INNCY,Inner area cycle surveys,532248,179002,New Kent Road,Southwark,Inner,51.49450124,-0.096357594,3,0,5,2,0,0,2,4,0,0,43,44,3,24,52,354,6,176,0,1,8,0,101,0,0,44,6,0,1,3,2,7,2,3,1,3,0,2,0,0,6,0,8,0,0,0,0,0,0,0
INNCY023,536,INNCY,Inner area cycle surveys,535073,178558,Rotherhithe New Road,Southwark,Inner,51.48984407,-0.055858117,0,0,8,0,0,0,4,6,0,0,7,8,2,7,6,84,3,102,0,1,0,0,62,0,0,6,1,0,0,2,0,5,2,0,0,0,0,2,0,1,3,0,2,0,0,0,0,0,0,0
INNCY024,1850,INNCY,Inner area cycle surveys,532063,174182,Norwood Road,Southwark,Inner,51.45122923,-0.100820743,0,0,0,0,0,0,0,2,0,0,7,4,1,1,5,105,0,102,0,0,0,0,59,0,0,6,1,0,0,0,1,2,0,0,0,0,1,0,0,0,0,0,0,1,0,0,0,0,0,0
INNCY025,501,INNCY,Inner area cycle surveys,534755,173071,London Road,Lewisham,Inner,51.44061167,-0.062525357,0,0,0,0,0,0,0,0,0,0,1,2,1,2,2,26,0,63,0,0,0,0,63,0,0,2,1,0,0,0,0,0,0,0,0,1,0,1,0,1,0,0,0,1,0,0,0,0,0,0
INNCY026,2002,INNCY,Inner area cycle surveys,533969,178110,Old Kent Road,Southwark,Inner,51.48608057,-0.071919786,0,0,0,0,0,0,1,0,0,0,4,2,0,3,4,115,0,87,0,1,1,0,63,0,0,6,1,0,0,1,0,1,1,0,0,0,0,5,0,0,4,0,1,0,0,0,0,0,0,0
INNCY027,595,INNCY,Inner area cycle surveys,523536,171974,Parkside High Street,Merton,Inner,51.43330824,-0.22424039,0,0,0,0,0,0,0,0,0,0,4,2,1,0,0,3,0,22,0,1,0,0,22,0,0,1,0,0,0,0,0,0,0,0,0,0,0,0,0,0,0,0,0,0,0,0,0,0,0,0
INNCY028,1408,INNCY,Inner area cycle surveys,523111,175298,Upper Richmond Road,Wandsworth,Inner,51.46327427,-0.229195798,0,0,0,0,0,0,1,6,0,0,5,5,0,1,2,82,0,54,0,0,3,0,50,0,0,9,0,0,0,1,1,0,0,0,0,0,0,0,0,0,0,0,1,0,0,0,0,0,0,0
INNCY029,1875,INNCY,Inner area cycle surveys,525948,175605,Wandsworth Bridge,Hammersmith & Fulham,Inner,51.46540969,-0.188269332,0,0,2,0,0,0,1,5,0,0,16,9,1,3,5,173,0,71,0,0,1,2,63,0,0,16,0,0,0,1,0,1,1,13,1,0,6,0,0,0,0,0,2,0,0,0,0,0,0,0
INNCY030,5089,INNCY,Inner area cycle surveys,524261,175780,Putney Bridge,Hammersmith & Fulham,Inner,51.467355,-0.212480787,0,0,0,0,0,0,1,9,0,0,13,18,1,8,1,174,1,65,0,0,3,1,55,0,0,11,1,0,0,0,0,2,0,1,1,0,3,1,0,0,0,0,2,0,0,1,0,0,0,0
INNCY031,1397,INNCY,Inner area cycle surveys,523973,177538,Lillie Road,Hammersmith & Fulham,Inner,51.4832175,-0.216008496,0,0,0,0,0,0,0,4,0,0,12,11,0,9,5,290,1,37,0,0,1,0,37,0,0,12,4,0,0,0,1,1,0,0,0,0,1,0,0,0,0,0,0,0,0,0,0,0,0,0
INNCY032,2250,INNCY,Inner area cycle surveys,529186,177288,Battersea Park Road,Wandsworth,Inner,51.47980527,-0.14106706,0,1,1,0,2,0,1,6,0,0,23,25,1,10,19,139,2,67,0,4,4,1,56,0,0,20,6,0,0,2,2,5,2,1,1,0,4,1,0,0,0,0,4,2,0,0,0,0,0,0
INNCY033,2413,INNCY,Inner area cycle surveys,527090,177225,Battersea Bridge Road,Wandsworth,Inner,51.47971346,-0.171256186,0,0,0,0,0,0,0,14,0,0,66,24,7,9,5,189,0,58,0,0,21,2,54,0,0,13,3,0,0,6,3,29,1,13,3,0,1,0,0,0,0,0,4,0,0,0,0,0,0,0
INNCY034,1888,INNCY,Inner area cycle surveys,527453,177343,Albert Bridge Road,Wandsworth,Inner,51.48069231,-0.165989209,0,0,0,0,0,0,0,14,0,0,55,13,3,10,4,146,0,51,0,0,13,1,47,0,0,9,4,0,0,2,2,40,0,7,3,0,1,0,0,0,0,0,2,0,0,0,0,0,0,0
INNCY035,1984,INNCY,Inner area cycle surveys,528627,175500,Cedars Road,Lambeth,Inner,51.46386412,-0.149762558,0,0,0,0,1,0,1,15,0,0,55,25,13,17,21,116,3,70,0,1,1,0,63,0,0,19,0,0,0,0,1,3,0,2,0,0,3,0,0,0,0,0,1,0,0,0,0,0,0,0
INNCY036,489,INNCY,Inner area cycle surveys,522607,173118,Kingston Road,Wandsworth,Inner,51.4437913,-0.237202081,0,0,0,0,0,0,0,0,0,0,0,0,0,0,3,10,0,32,0,0,0,0,30,0,0,2,0,0,0,0,0,0,0,0,0,0,0,0,0,0,0,0,0,0,0,0,0,0,0,0
INNCY037,553,INNCY,Inner area cycle surveys,524287,174215,West Hill,Wandsworth,Inner,51.45328442,-0.212656223,0,0,0,0,0,0,0,3,0,0,4,5,0,0,1,64,1,62,0,0,1,0,62,0,0,8,1,0,0,0,0,0,0,0,0,0,1,0,0,0,8,0,1,0,0,0,0,0,0,0
INNCY038,1032,INNCY,Inner area cycle surveys,523823,174512,Putney Hill,Wandsworth,Inner,51.45605518,-0.219226755,0,0,0,0,0,0,0,4,0,0,7,8,0,1,3,82,1,63,0,0,3,0,61,0,0,12,0,0,0,0,0,1,0,0,1,0,1,0,0,0,8,0,2,0,0,1,0,0,0,0
INNCY039,667,INNCY,Inner area cycle surveys,525784,169914,Morden Road,Merton,Inner,51.41430069,-0.192649067,0,0,1,0,0,0,2,3,0,0,12,11,0,8,4,90,1,46,0,1,0,0,46,0,2,9,1,0,1,0,0,0,0,1,2,0,0,0,0,0,0,0,2,0,0,0,0,0,1,0
INNCY040,314,INNCY,Inner area cycle surveys,525517,172111,Durnsford Road,Merton,Inner,51.43410451,-0.195708914,0,0,0,0,0,0,1,3,0,0,9,11,2,4,12,69,1,30,0,1,1,0,30,0,0,7,1,0,0,3,0,0,1,3,0,0,1,2,0,0,0,0,3,1,0,1,0,0,0,0
INNCY041,1642,INNCY,Inner area cycle surveys,527237,175764,Falcon Road,Wandsworth,Inner,51.46655056,-0.169666102,0,0,1,0,0,0,3,21,0,0,63,47,23,14,34,124,3,90,0,4,2,1,76,0,0,28,2,0,2,5,3,14,2,8,3,0,8,0,0,0,0,0,1,0,0,0,0,0,1,0
INNCY042,3676,INNCY,Inner area cycle surveys,526015,177204,King's Road,Hammersmith & Fulham,Inner,51.47976501,-0.186735633,0,0,1,0,0,0,1,11,0,0,55,28,8,12,8,240,3,84,0,1,18,1,78,0,0,13,1,0,0,3,3,13,2,21,3,1,1,1,0,0,0,0,8,1,0,0,0,0,0,0
INNCY043,5143,INNCY,Inner area cycle surveys,528118,177811,Chelsea Embankment,Kensington & Chelsea,Inner,51.48474806,-0.156248488,0,0,2,0,0,0,0,17,0,0,41,16,1,6,8,156,0,75,1,3,11,2,50,0,0,7,6,0,1,5,1,79,0,4,0,0,1,0,0,0,1,0,4,0,0,0,0,0,0,0
INNCY044,1331,INNCY,Inner area cycle surveys,528264,175206,Clapham Common (north side),Wandsworth,Inner,51.46130428,-0.155091704,0,0,0,0,1,0,2,22,0,0,69,29,22,14,22,95,1,79,0,2,1,0,71,0,0,17,3,0,2,3,1,17,2,5,3,0,7,0,0,0,0,0,0,0,0,0,0,0,0,0
INNCY045,1951,INNCY,Inner area cycle surveys,525713,177238,Fulham Road,Hammersmith & Fulham,Inner,51.4801377,-0.191070105,0,0,1,0,0,0,2,7,0,0,46,31,6,14,11,287,8,88,0,1,13,0,83,0,0,19,2,0,0,3,6,9,1,21,3,1,2,1,0,0,0,0,6,1,0,0,0,0,0,0
INNCY046,643,INNCY,Inner area cycle surveys,525358,174311,Buckhold Road,Wandsworth,Inner,51.45391129,-0.197216607,0,0,1,0,0,0,1,5,0,0,15,13,1,1,13,147,0,65,0,1,0,0,52,0,0,9,2,0,1,1,0,7,0,0,1,0,4,0,0,0,8,0,7,0,0,0,1,0,0,0
INNCY047,597,INNCY,Inner area cycle surveys,522577,182268,Scrubs Lane,Hammersmith & Fulham,Inner,51.52603088,-0.234460263,0,0,3,0,0,0,0,2,0,0,6,7,0,0,12,53,2,39,0,0,0,0,30,0,0,12,0,0,0,1,2,0,0,1,0,0,0,2,0,0,0,0,0,0,0,0,0,0,0,0
INNCY048,2195,INNCY,Inner area cycle surveys,520631,180048,The Vale,Ealing,Inner,51.5064977,-0.26325669,0,0,0,0,0,0,3,9,0,0,26,23,0,12,22,147,0,51,0,1,0,0,50,0,0,23,4,0,0,2,1,0,2,0,0,0,0,1,0,0,1,0,1,0,0,0,6,0,3,0
INNCY049,1095,INNCY,Inner area cycle surveys,523160,179647,Goldhawk Road,Hammersmith & Fulham,Inner,51.50234889,-0.226975551,1,2,9,3,2,0,8,25,0,0,95,40,4,8,44,372,7,85,0,3,8,0,75,0,0,21,6,0,1,11,5,72,5,6,4,0,1,1,0,0,0,0,8,0,0,0,0,0,3,0
INNCY050,713,INNCY,Inner area cycle surveys,523385,178939,Shepherd's Bush Road,Hammersmith & Fulham,Inner,51.49593697,-0.223982918,0,1,13,4,2,0,8,30,0,1,80,42,4,16,34,436,11,106,0,2,5,0,73,0,0,19,4,0,0,5,2,5,5,4,1,0,2,2,0,0,0,0,11,0,0,0,0,0,3,0
INNCY051,1243,INNCY,Inner area cycle surveys,524675,180242,Holland Park Avenue,Kensington & Chelsea,Inner,51.50736435,-0.204949649,0,0,6,0,0,0,0,36,0,0,52,37,5,3,11,307,6,66,0,0,12,0,56,0,0,13,3,0,0,4,2,87,0,4,0,0,0,4,0,0,0,0,6,0,1,0,0,0,0,0
INNCY052,3855,INNCY,Inner area cycle surveys,525180,179355,Kensington High Street,Kensington & Chelsea,Inner,51.49928134,-0.197991451,0,0,8,1,0,0,1,35,0,0,99,45,3,1,21,270,2,60,0,0,8,0,45,0,0,22,1,0,2,7,1,30,5,2,1,0,0,1,0,0,0,0,8,0,1,0,0,0,0,0
INNCY053,1176,INNCY,Inner area cycle surveys,524824,184403,Kilburn High Road (Brondesbury),Camden,Inner,51.54472636,-0.201330828,0,0,1,0,0,0,1,3,0,0,10,10,1,3,6,148,2,81,0,0,4,0,64,0,0,3,5,0,1,0,0,0,0,1,0,0,0,3,0,0,0,0,2,0,1,0,0,0,0,0
INNCY054,2076,INNCY,Inner area cycle surveys,525464,183570,Kilburn High Road (Kilburn Park),Camden,Inner,51.53709848,-0.192403094,1,0,1,0,0,0,1,8,0,0,15,10,1,1,3,155,2,88,0,0,4,0,70,0,0,12,3,0,0,2,0,2,0,1,0,0,0,1,0,0,0,0,6,0,0,0,0,0,0,0
INNCY055,579,INNCY,Inner area cycle surveys,527395,185045,Haverstock Hill,Camden,Inner,51.54992191,-0.164042962,0,0,0,0,0,0,1,7,0,0,22,14,1,5,6,154,2,72,0,1,2,0,72,0,0,11,4,0,0,1,0,3,0,2,1,0,0,4,0,0,0,0,0,0,0,0,0,0,0,0
INNCY056,3341,INNCY,Inner area cycle surveys,528998,185037,Kentish Town Road,Camden,Inner,51.54948617,-0.14093968,1,0,5,0,0,0,1,11,1,0,38,20,8,11,21,298,4,136,0,2,4,1,84,0,0,17,6,0,0,8,3,19,0,2,0,0,2,5,0,0,0,0,3,0,0,0,0,0,1,0
INNCY057,3045,INNCY,Inner area cycle surveys,529211,182856,Hampstead Road,Camden,Inner,51.52983759,-0.138669329,0,1,10,1,1,2,1,2,0,0,43,60,13,24,33,404,19,156,0,6,7,0,82,0,0,21,6,0,1,6,2,14,0,2,0,1,2,3,0,0,0,0,4,0,0,0,0,0,0,0
INNCY058,1245,INNCY,Inner area cycle surveys,529472,182995,Eversholt Street,Camden,Inner,51.531027,-0.134857806,0,1,10,0,1,1,1,2,0,0,67,88,17,29,43,457,22,168,0,6,8,0,88,0,0,29,8,0,1,5,2,39,0,2,0,1,2,3,0,0,0,0,4,0,0,0,0,0,0,0
INNCY059,590,INNCY,Inner area cycle surveys,528131,183675,Prince Albert Road,Camden,Inner,51.5374436,-0.153932284,0,0,4,0,0,0,2,8,0,0,33,20,13,11,15,152,3,84,0,4,5,2,56,0,0,6,2,0,0,6,1,26,1,3,0,1,1,2,0,0,1,0,2,0,0,2,0,0,0,0
INNCY060,585,INNCY,Inner area cycle surveys,527038,181309,Sussex Gardens,Westminster,Inner,51.51642756,-0.170535546,2,0,8,3,0,0,3,42,1,0,106,66,10,13,38,250,11,135,0,3,35,0,73,0,0,41,6,1,1,7,3,19,6,2,1,0,0,2,0,0,3,0,6,1,0,0,1,0,0,0
INNCY061,1045,INNCY,Inner area cycle surveys,524945,181742,Great Western Road,Westminster,Inner,51.52078528,-0.200530123,0,1,3,0,0,0,5,27,0,0,94,61,10,5,34,335,2,109,0,0,9,0,85,0,0,47,6,0,0,9,2,91,3,13,1,0,2,1,0,0,2,0,6,0,0,1,0,0,0,0
INNCY062,1721,INNCY,Inner area cycle surveys,528501,188148,Archway Road,Haringey,Inner,51.57755697,-0.146967321,0,1,0,0,0,0,1,5,0,0,14,5,1,1,6,23,1,91,0,0,0,0,48,0,0,4,2,0,0,0,0,1,1,1,2,0,0,1,0,0,0,0,3,1,0,0,0,0,0,0
INNCY063,683,INNCY,Inner area cycle surveys,528746,183054,Albany Street,Camden,Inner,51.53172307,-0.145296733,0,0,8,0,0,1,1,1,0,0,25,20,11,17,24,245,15,129,0,3,6,0,71,0,0,17,6,0,0,3,1,5,0,1,0,1,1,4,0,0,0,0,2,0,0,2,0,0,0,0
INNCY064,3814,INNCY,Inner area cycle surveys,525500,180523,Notting Hill Gate,Kensington & Chelsea,Inner,51.50970724,-0.192968643,0,0,3,0,0,0,1,39,1,0,121,52,8,6,22,311,7,87,0,0,13,0,66,0,0,25,8,1,2,7,0,89,0,5,2,0,1,5,0,0,0,0,12,0,0,1,0,0,0,0
INNCY065,443,INNCY,Inner area cycle surveys,525433,180044,Kensington Church Street,Kensington & Chelsea,Inner,51.50541734,-0.194103796,0,0,7,0,0,0,1,35,0,0,111,56,5,4,20,258,7,74,0,0,12,0,56,0,0,22,3,1,2,7,1,39,3,2,1,0,1,3,0,0,0,0,9,0,1,0,0,0,0,0
INNCY066,2973,INNCY,Inner area cycle surveys,526192,179640,Kensington Road,Westminster,Inner,51.50161781,-0.183318115,0,0,8,0,0,0,0,28,0,0,89,43,7,7,14,256,3,84,0,0,9,0,61,0,0,14,2,0,2,8,1,27,3,2,1,0,0,0,0,0,0,0,7,0,0,0,0,0,0,0
INNCY067,2060,INNCY,Inner area cycle surveys,525366,178040,Old Brompton Road,Kensington & Chelsea,Inner,51.48742223,-0.195779936,0,0,2,1,0,0,2,21,0,0,62,29,6,11,22,279,9,68,0,1,4,0,66,0,0,20,3,0,0,1,3,3,2,1,2,0,1,0,0,0,0,0,8,0,0,0,0,0,0,0
INNCY068,510,INNCY,Inner area cycle surveys,525575,178545,Earl's Court Road,Kensington & Chelsea,Inner,51.49191434,-0.192591904,0,0,6,0,0,0,2,36,0,0,95,36,5,8,24,271,6,81,0,0,2,0,67,0,0,20,4,0,0,7,1,6,6,1,0,0,0,0,0,0,0,0,7,0,0,0,0,0,0,0
INNCY069,551,INNCY,Inner area cycle surveys,525337,178371,Warwick Road,Kensington & Chelsea,Inner,51.49040336,-0.196079986,0,0,3,1,0,0,2,27,0,0,67,25,4,7,20,290,6,62,0,0,2,0,55,0,0,21,4,0,0,2,4,3,3,1,2,0,1,0,0,0,0,0,6,0,0,0,0,0,0,0
INNCY070,3144,INNCY,Inner area cycle surveys,524034,178736,Hammersmith Road,Hammersmith & Fulham,Inner,51.4939707,-0.214709967,0,0,10,3,1,0,5,21,0,1,51,33,4,13,22,426,8,92,0,1,5,0,62,0,0,17,3,0,0,2,0,5,3,3,0,0,2,2,0,0,0,0,4,0,0,0,0,0,0,0
INNCY071,1702,INNCY,Inner area cycle surveys,522510,178605,King Street,Hammersmith & Fulham,Inner,51.49312535,-0.236697026,1,2,6,2,1,0,4,10,0,0,43,23,3,11,22,292,9,95,0,3,3,0,72,0,0,14,5,0,0,2,1,3,3,2,0,0,1,0,0,1,0,0,10,0,0,0,0,0,4,0
INNCY072,1201,INNCY,Inner area cycle surveys,523288,180683,Wood Lane,Hammersmith & Fulham,Inner,51.51163168,-0.224770519,0,1,9,0,0,0,2,10,0,0,66,37,2,5,36,296,6,79,0,2,6,0,71,0,0,19,6,0,1,13,3,73,0,4,4,0,0,0,0,0,0,0,5,0,0,0,0,0,0,0
INNCY073,3217,INNCY,Inner area cycle surveys,523005,178145,Hammersmith Bridge Road,Hammersmith & Fulham,Inner,51.48888387,-0.229730596,0,0,7,2,1,0,3,8,0,1,45,27,2,12,21,266,8,87,0,2,5,0,61,0,0,15,5,0,0,2,1,3,1,1,0,0,2,0,0,0,0,0,7,0,0,0,0,0,0,0
INNCY074,478,INNCY,Inner area cycle surveys,522190,178370,Great West Road,Hammersmith & Fulham,Inner,51.49108253,-0.241385402,0,0,0,1,0,0,0,6,0,0,32,12,0,8,9,231,3,60,0,1,1,0,55,0,0,9,3,0,0,1,1,2,2,3,0,0,0,0,0,1,0,0,4,0,0,0,0,0,1,0
INNCY075,913,INNCY,Inner area cycle surveys,527067,178617,Fulham Road,Kensington & Chelsea,Inner,51.49222839,-0.171086734,0,0,3,0,0,0,0,56,0,0,155,66,15,10,26,348,4,117,0,1,14,0,81,0,0,14,3,0,1,16,5,162,2,19,1,0,1,0,0,0,0,0,10,0,0,0,0,0,0,0
INNCY076,736,INNCY,Inner area cycle surveys,528641,178627,Buckingham Palace Road,Westminster,Inner,51.49196267,-0.148423452,5,0,16,0,1,1,0,16,0,0,76,57,9,17,41,265,8,197,3,2,13,1,115,0,0,24,2,0,3,7,2,64,2,3,0,0,1,0,0,0,1,0,7,0,0,0,0,0,0,0
INNCY077,1782,INNCY,Inner area cycle surveys,527597,178335,King's Road (Belgravia),Kensington & Chelsea,Inner,51.48957485,-0.16355853,0,0,3,0,0,0,0,37,0,0,106,46,9,8,17,271,3,99,0,1,17,1,70,0,0,8,2,0,2,9,4,153,0,21,0,0,1,0,0,0,1,0,4,0,0,0,0,0,0,0
INNCY078,1347,INNCY,Inner area cycle surveys,528573,184249,Chalk Farm Road,Camden,Inner,51.54250157,-0.147353396,0,0,3,0,0,0,3,8,0,0,43,23,13,15,21,285,5,123,0,4,5,2,80,0,0,9,3,0,0,7,1,27,1,4,0,0,1,2,0,0,1,0,2,0,0,2,0,0,0,0
INNCY079,612,INNCY,Inner area cycle surveys,527569,182420,Park Road,Westminster,Inner,51.52629235,-0.162485213,4,0,3,2,0,0,2,41,0,0,69,47,1,9,32,190,7,101,0,0,38,0,64,0,0,28,3,1,1,4,6,49,6,1,1,1,1,3,0,0,1,0,5,0,0,0,0,0,0,0
INNCY080,1793,INNCY,Inner area cycle surveys,531957,184908,Highbury Grove,Islington,Inner,51.54764333,-0.098337296,0,0,0,0,0,0,1,4,0,0,49,39,6,13,22,246,3,139,0,1,0,0,75,0,0,26,6,0,0,5,1,24,2,11,1,0,1,2,0,0,1,0,0,0,0,0,0,0,0,0
INNCY081,2777,INNCY,Inner area cycle surveys,533567,185658,Stoke Newington Road,Hackney,Inner,51.55400462,-0.074847705,0,0,0,0,0,0,0,4,0,0,30,28,18,5,25,568,1,126,0,2,1,0,85,0,0,26,8,0,0,5,5,13,2,2,1,0,1,1,0,0,1,0,3,0,0,0,0,0,0,0
INNCY082,1743,INNCY,Inner area cycle surveys,534918,183094,Cambridge Heath Road,Tower Hamlets,Inner,51.53064278,-0.056355168,1,0,13,0,0,1,0,4,0,0,26,36,8,7,16,303,4,120,0,0,0,0,65,0,0,29,1,0,0,8,3,7,1,0,0,0,3,1,0,0,4,0,3,0,0,0,0,0,0,0
INNCY083,728,INNCY,Inner area cycle surveys,533062,174500,East Dulwich Road,Southwark,Inner,51.45385329,-0.086332834,0,0,0,0,0,0,0,3,0,0,3,7,0,0,0,90,0,70,0,0,0,0,54,0,0,1,0,0,0,0,0,2,0,0,0,0,0,0,0,0,0,0,0,0,0,0,0,0,0,0
INNCY084,1206,INNCY,Inner area cycle surveys,530631,175107,Acre Lane,Lambeth,Inner,51.4598738,-0.121075925,0,0,2,0,0,0,5,9,0,0,46,33,16,10,38,351,3,130,0,2,1,0,87,0,0,27,2,0,0,4,2,6,4,1,1,0,1,1,0,0,1,0,4,0,0,0,0,0,0,0
INNCY085,1329,INNCY,Inner area cycle surveys,524395,176093,Fulham High Street,Hammersmith & Fulham,Inner,51.47013856,-0.210442623,0,0,0,0,0,0,1,6,0,0,13,21,1,8,2,213,2,62,0,0,3,1,52,0,0,10,2,0,0,1,1,2,0,3,1,0,3,1,0,0,0,0,0,0,0,1,0,0,0,0
INNCY086,1176,INNCY,Inner area cycle surveys,525868,173232,Garratt Lane,Wandsworth,Inner,51.44410122,-0.190263989,0,0,0,0,0,0,1,13,0,0,12,15,2,7,16,89,0,39,0,2,1,0,39,0,0,7,0,0,0,2,1,2,1,3,0,0,0,0,0,0,0,0,2,0,0,0,0,0,0,0
INNCY087,1452,INNCY,Inner area cycle surveys,527703,175888,Latchmere Road,Wandsworth,Inner,51.46756007,-0.162916432,0,0,0,0,0,0,3,21,0,0,78,52,23,14,39,104,3,84,0,4,2,0,70,0,0,33,2,0,2,3,1,10,1,8,3,0,9,0,0,0,0,0,0,0,0,0,0,0,1,0
INNCY088,394,INNCY,Inner area cycle surveys,529275,171070,Mitcham Lane,Wandsworth,Inner,51.42390502,-0.142056172,0,0,0,0,0,0,1,1,0,0,0,3,0,2,2,64,1,70,0,0,3,0,68,0,0,5,3,0,0,0,0,0,0,0,0,0,0,1,0,0,0,0,1,1,0,0,0,0,1,0
INNCY089,4129,INNCY,Inner area cycle surveys,532446,177980,Walworth Road,Southwark,Inner,51.48527073,-0.093890197,3,0,1,0,0,0,5,3,0,0,34,23,4,19,31,212,0,94,0,1,5,0,68,0,0,27,4,0,1,3,0,10,2,3,1,0,0,6,0,0,3,0,3,0,0,0,0,0,0,0
INNCY090,2286,INNCY,Inner area cycle surveys,530119,177538,Wandsworth Road,Lambeth,Inner,51.48183829,-0.127547196,0,0,3,0,0,0,1,11,0,0,24,29,10,11,15,236,8,120,0,2,14,1,72,1,0,26,1,0,0,2,1,2,1,0,3,0,6,2,0,0,2,0,7,3,0,0,0,0,0,0
INNCY091,383,INNCY,Inner area cycle surveys,532893,172185,South Croxted Road,Southwark,Inner,51.43308908,-0.089632054,0,0,0,0,0,0,0,2,0,0,7,8,0,3,6,64,0,79,0,0,7,0,54,0,0,7,2,0,0,1,0,3,0,0,0,0,0,1,0,0,0,0,0,0,0,0,1,0,0,0
INNCY092,1132,INNCY,Inner area cycle surveys,537389,176163,Lewisham Way,Lewisham,Inner,51.4677648,-0.023451316,0,0,0,0,0,0,0,1,0,0,12,13,2,12,10,99,0,108,0,2,0,0,83,14,0,10,2,0,0,0,1,2,0,1,0,0,0,2,0,0,0,0,4,0,0,0,0,0,0,0
INNCY093,301,INNCY,Inner area cycle surveys,531000,173240,Christchurch Road,Lambeth,Inner,51.44301048,-0.116458259,0,0,0,0,0,0,1,4,1,0,10,10,2,6,19,162,0,96,0,1,0,0,67,0,0,23,1,0,1,0,1,0,0,0,0,0,0,1,0,0,0,0,1,0,0,0,0,0,0,0
INNCY094,438,INNCY,Inner area cycle surveys,534339,173344,Dulwich Common,Southwark,Inner,51.44316369,-0.068403623,0,0,0,0,0,0,0,0,0,0,0,1,0,1,0,31,0,50,0,0,0,0,50,0,0,1,0,0,0,0,0,0,0,0,0,1,0,1,0,0,0,0,0,1,0,0,0,0,0,0
INNCY095,516,INNCY,Inner area cycle surveys,531201,174410,Tulse Hill,Lambeth,Inner,51.4534784,-0.113134384,0,0,2,0,0,0,0,3,0,0,21,13,3,3,17,229,1,127,0,1,0,0,75,0,0,12,3,0,0,1,2,4,1,0,0,0,1,1,0,0,0,0,2,1,0,0,0,0,0,0
INNCY096,561,INNCY,Inner area cycle surveys,535367,176561,Lausanne Road,Lewisham,Inner,51.4718282,-0.052390796,0,0,1,0,0,0,0,3,0,0,5,6,0,5,7,89,0,76,0,0,1,0,60,0,0,12,0,0,0,1,0,1,0,0,0,0,0,1,0,0,3,0,0,0,0,0,0,0,0,0
INNCY097,2239,INNCY,Inner area cycle surveys,532665,176061,Denmark Hill,Lambeth,Inner,51.46797434,-0.091457998,0,1,6,0,0,1,3,5,0,0,3,11,3,7,13,191,0,103,0,1,2,0,67,0,0,16,1,0,0,3,1,0,2,1,0,0,0,6,0,0,0,0,1,0,0,0,0,0,0,0
INNCY098,317,INNCY,Inner area cycle surveys,533683,174456,Lordship Lane,Southwark,Inner,51.45331173,-0.077417274,0,0,0,0,0,0,0,3,0,0,3,7,0,0,0,108,0,60,0,0,0,0,58,0,0,1,0,0,0,0,0,2,0,0,0,0,0,0,0,0,0,0,0,0,0,0,0,0,0,0
INNCY099,1099,INNCY,Inner area cycle surveys,531766,172686,Norwood Road,Lambeth,Inner,51.43785436,-0.105648914,0,0,0,0,0,0,2,8,1,0,11,24,0,7,29,125,0,113,0,0,2,0,76,0,0,29,2,0,0,1,1,2,1,1,0,0,0,0,0,0,1,0,1,0,0,0,0,0,0,0
INNCY100,380,INNCY,Inner area cycle surveys,534968,172025,Kirkdale,Lewisham,Inner,51.43116123,-0.05986091,0,0,0,0,0,0,0,6,0,0,9,8,2,5,4,36,0,70,0,0,0,0,70,0,0,9,3,0,0,2,2,2,0,1,0,0,1,0,0,1,0,0,2,0,0,0,0,0,0,0
INNCY101,1071,INNCY,Inner area cycle surveys,528416,172057,Tooting Bec Road,Wandsworth,Inner,51.43297019,-0.154046615,0,0,1,0,0,0,5,9,0,0,55,16,4,1,9,60,4,46,0,1,1,0,46,0,0,15,3,0,1,4,3,9,3,0,0,0,1,2,0,0,0,0,2,1,0,0,0,0,1,0
INNCY102,825,INNCY,Inner area cycle surveys,526989,173916,Trinity Road,Wandsworth,Inner,51.44999832,-0.17389736,0,0,0,0,1,0,0,10,0,0,14,2,2,5,0,39,0,43,0,0,0,0,43,0,0,3,0,0,0,2,0,3,0,0,1,0,1,0,0,0,0,0,1,0,0,0,1,0,0,0
INNCY103,278,INNCY,Inner area cycle surveys,522131,174213,Roehampton Lane,Wandsworth,Inner,51.45373516,-0.243670183,0,0,0,0,0,0,0,0,0,0,2,3,1,0,3,32,0,44,0,0,0,0,38,0,0,5,0,0,0,0,0,0,0,0,0,0,0,0,0,0,0,0,0,0,0,1,0,0,0,0
INNCY104,1035,INNCY,Inner area cycle surveys,522552,176230,Rocks Lane,Richmond upon Thames,Inner,51.47177158,-0.236915721,0,0,0,1,0,0,0,0,0,0,5,3,0,1,0,43,0,40,0,0,0,0,38,0,0,2,0,0,0,1,1,0,0,0,0,0,0,0,0,0,0,0,1,0,0,0,0,0,0,0
INNCY105,1329,INNCY,Inner area cycle surveys,523542,178014,Fulham Palace Road,Hammersmith & Fulham,Inner,51.4875896,-0.222045891,0,0,9,1,1,0,3,4,0,1,32,22,2,12,23,352,7,85,0,1,5,0,57,0,0,13,4,0,0,2,0,3,0,1,0,0,2,1,0,0,0,0,5,0,0,0,0,0,0,0
INNCY106,1047,INNCY,Inner area cycle surveys,527036,174955,Battersea Rise,Wandsworth,Inner,51.45932524,-0.172848558,0,0,0,0,1,0,2,23,0,0,52,39,20,13,22,128,3,82,0,3,1,0,71,0,0,20,2,0,2,3,3,17,2,8,4,0,10,0,0,0,0,0,2,0,0,0,0,0,0,0
INNCY107,1065,INNCY,Inner area cycle surveys,527984,175604,Lavendar Hill,Wandsworth,Inner,51.46494438,-0.158975992,0,0,0,0,0,0,4,23,0,0,79,47,23,11,34,105,3,85,0,4,2,0,71,0,0,31,2,0,2,4,2,18,2,9,3,0,9,0,0,0,0,0,0,0,0,0,0,0,1,0
INNCY108,854,INNCY,Inner area cycle surveys,526332,170127,Merton High Street,Merton,Inner,51.41609321,-0.184697386,0,0,1,0,0,0,2,2,0,0,17,11,0,7,4,89,2,45,0,0,2,0,44,0,1,15,2,0,2,0,0,3,0,1,1,0,1,0,0,0,2,0,3,0,1,0,0,0,1,0
INNCY109,1037,INNCY,Inner area cycle surveys,524569,175244,Putney Bridge Road,Wandsworth,Inner,51.46247026,-0.208237719,0,0,0,0,0,0,0,4,0,0,12,14,0,4,1,146,1,66,0,0,3,2,56,0,0,12,0,0,0,0,0,2,0,1,1,0,2,1,0,0,8,0,2,0,0,1,0,0,0,0
INNCY110,798,INNCY,Inner area cycle surveys,529334,174023,Poynders Road,Lambeth,Inner,51.45042966,-0.14013043,0,0,0,0,0,0,1,9,0,0,21,11,3,6,14,89,3,46,0,1,1,0,46,0,0,10,5,0,0,1,1,0,0,1,0,0,2,0,0,0,0,0,1,0,0,0,1,0,0,0
INNCY111,1948,INNCY,Inner area cycle surveys,529191,186065,Junction Road,Islington,Inner,51.55868031,-0.13778048,1,0,5,0,0,0,3,13,1,0,27,17,3,8,9,248,6,133,0,1,1,0,79,0,0,17,7,0,0,5,2,2,1,1,1,0,1,3,0,0,0,0,4,0,0,0,0,0,1,0
INNCY112,623,INNCY,Inner area cycle surveys,523944,182462,Harrow Road,Westminster,Inner,51.52747629,-0.214697159,0,0,0,0,0,0,3,4,0,0,20,26,1,0,10,195,1,80,0,0,1,0,66,0,0,26,2,0,0,3,0,11,0,5,2,0,0,3,0,0,0,0,2,0,0,0,0,0,0,0
INNCY113,815,INNCY,Inner area cycle surveys,524146,179601,Holland Road,Kensington & Chelsea,Inner,51.50171998,-0.212793421,0,0,7,1,0,0,3,31,0,0,74,38,2,8,19,344,4,71,0,1,5,0,58,0,0,19,4,0,1,8,1,61,4,4,3,0,0,3,0,0,0,0,5,0,1,0,0,0,0,0
INNCY114,209,INNCY,Inner area cycle surveys,526066,178882,Cromwell Road,Kensington & Chelsea,Inner,51.49483379,-0.185403016,0,0,7,0,0,0,1,47,0,0,156,67,12,10,35,342,7,108,0,1,8,0,87,0,0,25,2,0,2,14,2,27,4,5,1,0,0,0,0,0,0,0,11,0,0,0,0,0,0,0
INNCY115,1387,INNCY,Inner area cycle surveys,528467,182104,Marylebone Road,Westminster,Inner,51.52324917,-0.149662897,4,0,21,2,0,3,4,37,0,0,108,66,12,14,48,350,12,144,0,2,26,0,75,0,0,16,5,0,3,8,1,91,5,17,1,1,1,3,0,0,0,0,9,0,0,0,0,0,0,0
INNCY116,1218,INNCY,Inner area cycle surveys,529591,178567,Vauxhall Bridge Road,Westminster,Inner,51.49120673,-0.134769255,6,0,17,0,1,1,1,8,0,0,75,71,17,19,55,298,19,243,1,4,7,2,132,0,0,33,4,0,1,5,1,10,3,1,1,0,6,0,0,0,0,0,7,0,0,0,0,0,0,0
INNCY117,120,INNCY,Inner area cycle surveys,524235,178360,Talgarth Road,Hammersmith & Fulham,Inner,51.49054747,-0.211948342,0,0,8,1,0,0,3,12,0,1,42,26,3,12,19,406,8,95,0,1,4,0,68,0,0,15,4,0,0,1,1,3,2,1,0,0,2,2,0,0,0,0,2,0,0,0,0,0,0,0
INNCY118,1459,INNCY,Inner area cycle surveys,529751,186661,Holloway Road,Islington,Inner,51.56390789,-0.129487189,0,0,1,0,0,0,2,3,0,0,17,16,1,7,16,253,5,133,0,1,0,0,79,0,0,21,4,0,0,3,1,2,2,1,2,0,0,3,0,0,0,0,1,0,0,0,0,0,0,0
INNCY119,275,INNCY,Inner area cycle surveys,527023,182926,Wellington Road,Westminster,Inner,51.53096265,-0.170169168,0,0,1,0,0,0,0,30,0,0,29,25,1,6,9,112,1,65,0,0,41,0,55,0,0,15,3,1,0,0,5,22,1,0,0,0,1,3,0,0,0,0,3,0,0,0,0,0,0,0
INNCY120,1104,INNCY,Inner area cycle surveys,527116,180849,Bayswater Road,Westminster,Inner,51.51227608,-0.169577759,1,0,3,3,0,0,3,38,0,0,84,53,6,10,23,195,12,113,0,3,19,0,60,0,0,29,4,0,1,6,1,18,4,1,1,0,0,0,0,0,2,0,3,3,0,0,1,0,0,0
INNCY121,1093,INNCY,Inner area cycle surveys,526101,178444,Old Brompton Road,Kensington & Chelsea,Inner,51.49088971,-0.185055453,0,0,4,0,0,0,1,41,0,0,135,55,10,9,32,317,8,87,0,1,7,0,71,0,0,21,2,0,0,11,3,24,4,9,1,0,0,0,0,0,0,0,13,0,0,0,0,0,0,0
INNCY122,2029,INNCY,Inner area cycle surveys,529462,184552,Camden Road,Camden,Inner,51.54502149,-0.134429814,0,0,4,0,0,0,0,7,0,0,39,17,12,12,23,265,5,140,0,3,4,2,81,0,0,14,7,0,0,5,2,23,0,2,0,0,0,3,0,0,0,0,0,0,0,2,0,0,0,0
INNCY123,1390,INNCY,Inner area cycle surveys,526604,182184,Edgware Road (Maida Vale),Westminster,Inner,51.52438841,-0.17647282,0,0,7,2,0,0,1,30,1,0,58,51,7,10,32,170,10,120,0,2,37,0,80,0,0,33,3,1,1,3,5,8,3,0,1,0,2,2,0,0,3,0,4,0,0,0,0,0,0,0
INNCY124,1767,INNCY,Inner area cycle surveys,527516,181222,Edgware Road (Lisson Grove),Westminster,Inner,51.51553811,-0.163681908,2,0,18,4,0,0,5,60,0,0,155,85,6,15,58,281,18,164,0,3,34,0,84,0,0,36,7,0,1,11,3,88,8,7,2,0,0,1,0,0,3,0,9,3,0,0,1,0,0,0
INNCY125,1291,INNCY,Inner area cycle surveys,527917,179065,Sloane Street,Kensington & Chelsea,Inner,51.496063,-0.158687667,5,0,7,0,0,0,0,40,0,0,100,58,10,9,28,247,11,160,3,2,14,0,97,0,0,14,0,0,2,6,3,177,0,13,0,0,0,0,0,0,1,0,5,1,0,0,0,0,0,0
INNCY126,245,INNCY,Inner area cycle surveys,525294,181055,Pembridge Villas,Kensington & Chelsea,Inner,51.51453399,-0.19574658,0,1,4,0,0,0,2,35,1,0,127,66,11,7,33,325,6,102,0,0,14,0,77,0,0,40,10,1,0,8,2,91,2,8,1,0,3,5,0,0,2,0,10,0,0,1,0,0,0,0
INNCY127,762,INNCY,Inner area cycle surveys,525922,181270,Bishop's Bridge Road,Westminster,Inner,51.51632669,-0.186624429,0,0,7,1,0,0,4,32,2,0,116,70,12,7,41,257,9,111,0,3,14,0,76,0,0,44,8,1,0,6,0,49,2,4,1,0,2,2,0,0,3,0,9,0,0,1,0,0,0,0
INNCY128,856,INNCY,Inner area cycle surveys,528255,180337,Park Lane,Westminster,Inner,51.50741769,-0.153359303,1,3,33,0,0,1,2,14,0,0,135,59,18,10,24,177,26,142,0,2,10,0,71,0,0,10,5,0,2,5,0,180,2,5,2,0,0,0,0,0,1,0,4,4,0,0,0,0,0,0
INNCY129,1824,INNCY,Inner area cycle surveys,528551,179563,Grosvenor Place,Westminster,Inner,51.50039474,-0.149378439,6,0,19,0,0,2,0,10,0,0,124,68,16,16,46,202,24,187,3,2,12,0,103,0,0,18,2,0,2,3,0,71,1,1,0,0,1,0,0,0,1,0,5,1,0,0,0,0,0,0
INNCY130,794,INNCY,Inner area cycle surveys,529535,185409,Brecknock Road,Camden,Inner,51.55270628,-0.133062432,1,0,4,0,0,0,0,9,1,0,21,12,3,9,14,244,2,125,0,1,3,0,70,0,0,14,7,0,0,3,3,3,0,1,0,0,1,3,0,0,0,0,2,0,0,0,0,0,1,0
INNCY131,833,INNCY,Inner area cycle surveys,525426,181900,Harrow Road,Westminster,Inner,51.52209871,-0.193544864,1,1,7,0,0,0,3,22,2,0,75,40,6,5,25,263,3,96,0,1,7,0,73,0,0,41,7,0,0,2,0,50,2,6,1,0,2,2,0,0,2,0,7,0,0,1,0,0,0,0
INNCY132,1469,INNCY,Inner area cycle surveys,533653,186934,Stamford Hill,Hackney,Inner,51.56545077,-0.073123389,0,0,0,0,0,0,0,3,0,0,21,24,5,7,24,326,0,75,0,4,2,0,63,0,0,28,7,0,0,5,3,11,3,3,1,0,1,2,0,0,2,0,0,0,0,0,0,0,0,0
INNCY133,1129,INNCY,Inner area cycle surveys,530647,184349,Caledonian Road,Islington,Inner,51.54292439,-0.117426173,0,0,4,0,0,0,3,2,0,0,28,34,7,16,15,210,1,102,0,0,0,0,66,0,0,23,4,0,0,1,2,19,1,4,1,0,1,2,0,0,1,0,3,0,0,0,0,0,0,0
INNCY134,2528,INNCY,Inner area cycle surveys,532132,182893,City Road,Islington,Inner,51.52949474,-0.096570635,1,2,19,2,0,2,3,6,1,0,92,60,16,24,48,530,4,174,0,1,3,0,107,0,0,30,10,0,0,3,1,14,1,8,2,0,2,4,0,1,0,0,5,0,0,0,0,0,0,0
INNCY135,4352,INNCY,Inner area cycle surveys,533476,183701,Kingsland Road,Hackney,Inner,51.5364399,-0.076901136,0,1,1,0,0,3,1,2,0,0,23,30,5,7,9,402,0,135,0,0,0,0,82,0,0,23,4,0,1,4,2,5,0,1,0,0,1,1,0,0,7,0,3,0,0,0,0,0,0,0
INNCY136,3446,INNCY,Inner area cycle surveys,533692,181844,Commercial Street,Tower Hamlets,Inner,51.51970121,-0.074492884,2,1,56,1,3,3,12,11,1,0,165,136,65,42,96,452,15,217,0,6,6,0,111,0,0,35,7,0,2,2,0,31,0,2,2,0,12,1,0,0,2,0,23,0,0,0,0,0,0,0
